time,lat_acc,lon_acc,pitch_rate,roll_rate,vert_acc,yaw_rate
1532706803.559165,0.0021395986205925005,0.007839789157024999,5.045215052075001e-05,9.885684060224998e-06,0.01038354063374,8.481658555625001e-05
1532706803.640853,-0.0034362518784925005,-0.0038382901646425004,-4.4533981977149994e-05,0.00018322474162725001,0.0037728710576800002,7.6681203151375e-05
1532706803.7197962,0.0029130789482350004,0.0004104232019505001,1.245855730115e-05,0.0003673973031935,0.023245003045875002,-1.82288466118e-05
1532706803.798836,-0.0078386018690575,-0.012853161769149999,-4.9959830145200005e-05,-0.000195953456042,7.189131116500059e-05,1.9735827022774997e-05
1532706803.88025,0.0019977991971299996,-0.008349461327799998,-2.5535972297249995e-05,-0.00016074449793525,0.002864664695227499,3.6005826295025e-05
1532706803.9591,0.0001774918550500014,-0.0070353571334775,-0.00021550849067275,-0.00022032981131724997,0.008195760203194999,-2.3652300083547502e-05
1532706804.038834,3.951612906750047e-05,0.00296048873141,-6.07267885732e-05,-3.063072899825e-05,0.0005508658299024998,6.149168664749998e-06
1532706804.1203241,0.00031508919457500124,-0.0046578744740675,-5.792054236275e-05,9.135702077174999e-05,0.00015819697050000088,-4.723964752124998e-06
1532706804.199264,0.0037886844626250004,-0.005486675856025001,-4.43506875735e-05,4.531386552399998e-05,0.001255156156225002,-2.0994069652145003e-05
1532706804.281601,-0.0033651660346037506,0.0022600209595574996,4.498976648025002e-06,-0.00029594723397325,-0.011184551751992499,1.1546663344750007e-05
1532706804.358588,0.0032221024900425,0.006224291270777503,3.1636789233000005e-05,-0.0002038610446765,-0.00755736689405,0.00011188026155
1532706804.439835,0.0026633164923450005,0.011001944747925,0.00011033851624175002,7.239801115e-05,-0.0020746555907649993,-1.8283020052750002e-05
1532706804.5208519,0.005916315379445001,0.010811086549525,0.00016733014671149998,0.00032969781793375,0.005369095388427499,-3.1841297902750003e-05
1532706804.600174,-0.0026258781603075,-0.0034601055997527494,-0.00010134129809575,0.0001996937941965,-0.01088259390475,-1.0146735574e-05
1532706804.679388,0.0011969174690515,-0.0068077398843250005,3.9780013238275e-05,-0.000125316688339,-0.009823748999384999,-3.4552306736075e-05
1532706804.760712,0.00018546256999750054,0.0005091268668449998,-3.6208574464415e-05,-6.573164616699998e-05,0.00835652606751,-1.5570214001099998e-05
1532706804.8403358,-0.006188975730466249,-0.0060341777953775,3.16370888575e-05,-0.000230945629365575,-0.0005696939101500001,4.137566045585e-05
1532706804.922451,-0.0049034419882372495,4.752372820499961e-05,-8.234528865950003e-05,0.00024302786254724998,0.004946855617447499,-1.557040806747499e-05
1532706804.997625,-0.0047173582756750015,-0.003731950113374999,-0.00023974873199175,5.343853490175001e-05,-0.0008342428874625002,-2.9128655620175e-05
1532706805.081076,-0.0022935777065789995,-0.014535460596225,1.5426091899499998e-05,0.000145328830730725,-0.003120525366849999,-7.246931904942501e-05
1532706805.16041,-0.00110724180873,-0.006659097031475,-0.00014740565864275,-0.00038281225974300006,-0.0093989129503225,-2.094614228498e-05
1532706805.239614,0.0039060132879825005,0.0003131096689249994,-9.85572137592e-05,-0.000255516701229,-0.003728476661274998,-2.3658562211475003e-05
1532706805.319741,-0.0043819983424205015,0.00582791311921,4.2563237363499995e-05,2.0741461557599998e-05,-0.0014607098167749993,9.023374537825e-05
1532706805.399049,-0.0015192706578799997,0.0043351704225325,-3.5724375477499975e-06,2.0741586568000006e-05,-0.009019351711762501,-5.6199643820025e-05
1532706805.480212,-0.0022214959374725,0.00768007889945,9.955543210075002e-05,0.00011553604945057502,-0.0088708381609875,7.471951355000011e-07
1532706805.561241,0.0019625114969525,0.0051874226058700006,0.00012397997637575,9.907718924249991e-06,0.0020162928426925002,0.00010379284841247501
1532706805.6381052,0.007260604739500001,0.00641405576135,0.00014840448116125,4.78255792394e-05,0.002093758654124999,6.1704174755675e-06
1532706805.7214859,-0.0049797191821749996,0.009816343049775,0.000137548316785,-0.00012280453997275,0.0006919598040999999,8.881781890925004e-06
1532706805.798973,0.006806981079599999,-0.0004169756439249997,7.784277410425e-05,0.00015345356369790003,0.0075718388078999995,8.480998792914998e-05
1532706805.8802161,-0.0009748402885549996,-0.006527951441564999,-3.0711455578825e-05,5.5950226331389995e-05,0.014300111277217501,1.7017246166575002e-05
1532706805.961387,0.0013123792695549997,-0.00791312876605,-6.599159775800001e-05,9.386824812065e-05,0.00405679926865,-3.450565714199999e-05
1532706806.041044,-0.003937680690625001,-0.008453869421015,-0.00010675936198795,-0.00012544719803900001,0.0031276849920750006,-1.9871719194750005e-06
1532706806.119158,0.0011520583122275,-0.0022722366559325,-0.0001338984679315,-0.000190449436572,0.015337258742065,4.682384604391e-05
1532706806.200468,-0.0033823714637125,-0.004638100596127501,-0.00015560961005579496,-0.00013628087446625,-0.00284508382135,-1.987501316100001e-06
1532706806.277761,-0.002698539463735,-0.0035028929556700002,-3.619940168200002e-05,-8.211247557200001e-05,-0.0069285567139500005,4.14001173108975e-05
1532706806.360809,-0.00536144233636,-0.002329605918175,-0.00010675934056999999,-1.1693356421249998e-05,-0.004277816263047501,1.9706498995174994e-05
1532706806.440174,0.0049718994779,0.0039496010485525,3.9789623135e-05,-5.5027760481000005e-05,-0.004049244698984998,3.326501119925e-05
1532706806.51913,0.00159625376452,0.007130407620000001,0.0001999076425125,-2.7943609458100008e-05,-0.0018200230428999991,3.5976610188025e-05
1532706806.598559,0.0006227698403000002,0.004368294110047251,-8.233484404350001e-05,-7.398645796400001e-05,-0.0110413591698775,-3.9951995163675e-05
1532706806.67976,0.0077386816269175,0.010610752323999998,0.00017005506331525,0.0001833134526795,0.002041456213699999,-1.2834806557900003e-05
1532706806.759022,-0.00489036939913,0.0011400613511525007,6.421444227865e-05,5.601782899037499e-05,-0.0056327522092575015,7.239955833000004e-07
1532706806.840873,0.0022119097613850017,-0.0012124166103625001,6.150084425625001e-05,0.00010476966474100001,-0.0034369152583650004,1.4282611600375003e-05
1532706806.919112,0.0004288165249500004,-0.0032603520431954995,-3.3484339034e-05,9.975050498e-06,-0.00181012439346,6.147558740449999e-06
1532706807.000276,-0.0015756114946924998,-0.0019320861229750004,-3.34844877887375e-05,-3.065107256999999e-05,0.0038621436804500003,-5.351063895947499e-05
1532706807.07925,-0.00028418070505000035,-0.005678766597825,-2.8023681177499998e-05,0.000126587382939375,-6.185378800000613e-06,-2.9080853988425e-05
1532706807.160727,-0.0016042346346774993,-0.005176728420522499,-6.05897159788825e-05,4.2626150982200004e-05,0.006344300575,4.9559511184475e-05
1532706807.239987,0.0012577035613949997,-0.00844011350155,-0.00012572233097015,2.3667105155175002e-05,0.006835945230835,-1.823355242765e-05
1532706807.3214688,0.0046182244347725,-0.007911139770275001,-2.2595322005975e-05,-9.550336094075e-05,0.00267724964393,-5.6197735718425e-05
1532706807.39939,-0.0004178503522875004,-0.01021803313885,-1.445389882875e-05,-4.6751673733495e-05,-0.002275592602125001,-1.0098503897370001e-05
1532706807.478897,-0.0003643758352074992,0.0003822437812549999,-6.3303493054925e-05,-0.00010633717876024999,-0.007154314581602499,-4.674947485624999e-06
1532706807.558448,0.0034704150904385504,0.0054378804281850004,8.595908579025e-05,5.887654916055e-05,0.0024096251035000005,7.485391209999996e-07
1532706807.638174,0.0033251354935775004,0.0012277962343499999,-6.312009853749994e-06,-3.5918182890674994e-05,-0.008364676952957503,-2.6368597426875002e-05
1532706807.719768,0.0031165417114449997,0.008791775059925,0.000189086439541,5.0751392810500004e-05,-0.001144500411750001,3.600120395252499e-05
1532706807.800649,0.0015781126608725004,0.008969125984725,0.00012938134189905,-7.087627237499972e-07,0.0036561259408625013,2.7866052966425002e-05
1532706807.878145,0.00162239093861725,0.011687865821975,0.00014837809110525,1.825021774500002e-05,0.0032781624149699996,3.87127827655e-05
1532706807.961391,-0.0029203965080899998,0.003940138872015,6.1534468026075e-05,8.054367626319998e-05,0.001498711321624999,7.39654193366e-05
1532706808.039636,-0.00422269349178,0.00124644097977,9.9528800534375e-05,6.700157906799999e-05,0.009324779810297501,3.8713073250324995e-05
1532706808.1175618,0.00200625899006275,-0.0106942535366375,7.2411702155000004e-06,3.444460655625001e-05,0.004491595748580001,4.9576141556775004e-05
1532706808.199549,-0.0036117304823300002,-0.006397847643914999,-0.00012845222267225,-4.951654003205e-05,0.008120460973645,4.4152713099370006e-05
1532706808.281108,-0.0049472914022875,-0.00649792382169,-0.00011488327515325,-8.201784025299999e-05,0.003996389367524998,-2.63522660446e-05
1532706808.3581939,-0.006201851530324999,-0.0083656761052725,-0.00020444093368625,-9.0143111308025e-05,0.006038197780325,-1.5505383411295e-05
1532706808.44025,-0.0020287021065350003,-0.005019208235315,-0.00016916057444125,-3.8683218232850006e-05,-0.007574033450392501,6.188540363025002e-06
1532706808.518702,-0.004992336425135,-0.0018468442337749996,-0.00013659396922075,-0.00011181071460375001,-0.007273044960324999,7.652728368250086e-07
1532706808.598224,0.00281466707006,-0.0007465390078000001,7.23736387605e-05,8.861240604225e-05,-0.0007337494179724992,-2.6352060158025e-05
1532706808.679445,-0.0039842797401425,0.0057275814758124995,-1.1755984893599997e-05,-4.13919035608e-05,-0.0057998445203175,2.24592239815e-05
1532706808.761111,-0.0014703488068374998,0.0054656521695925,8.051504843475e-05,-2.7850008377425e-05,-0.014499109607375,-2.63519891604875e-05
1532706808.8382561,0.00228676037515,0.0062583007581625,0.000115795521224,6.152781256700001e-05,-0.007052386994149999,2.7882702266125e-05
1532706808.919703,0.013048391976075002,0.0064993875101700006,0.00018906913855075002,-9.826928316566002e-05,0.006062518321125,3.3305870520225004e-05
1532706809.0005322,-2.7923745425000382e-05,0.0052035551778625,-2.2612433492999993e-05,9.402878084682499e-05,0.002210446424475,1.4323698322485e-05
1532706809.08025,0.0024993533146975,0.0043370439282,8.331564626324998e-05,0.00019975999273424998,-0.0014442734286750003,8.8970677841525e-06
1532706809.159693,0.0040150969609575,-0.002228561170635,8.3316151096425e-05,0.000213301761869,0.004035000204303001,7.623564425000043e-07
1532706809.239542,-0.0020707258735099994,-0.011140181076575,-9.308425069652499e-05,-0.00013608510948,0.007056046770469999,-1.5507576152787503e-05
1532706809.320671,-0.0019979445760375,-0.0038602684467099998,3.17522785102e-05,-0.00020650407805125002,-0.006707298274074999,0.00016617755727124997
1532706809.3998392,0.0053721263530925,-0.0049307539944625,-4.423635564950002e-05,-0.00021463006762874998,0.010413652730300007,0.0001227900152255
1532706809.481386,0.13447629233225,-0.00905727006545,0.0027456105617849995,-0.0003771426186895,-0.038887973341149996,0.00010652290983
1532706809.5609438,0.166007204161,-0.0014377230420800002,0.0031988235160074997,-0.000301323138857,0.007760814954770999,0.00035872167190475004
1532706809.64084,0.18568250147350002,-0.016870494872675,0.0022326875319874998,8.86755015555e-05,0.026595698510375,0.000263818156559
1532706809.7217882,0.21156053464225,0.005917481541797501,0.0012204185117625,-4.1337178135789994e-05,0.035361186424949995,-0.00013208894002399998
1532706809.8005788,0.20869682222725,0.00490167019805,0.0006776453942984999,-0.000341976475749,0.018868956352775,0.00010112139249290001
1532706809.8801382,0.21929111634450002,0.00697203696529,0.00028413427732625,5.6158888683500026e-05,0.0031984087757674995,0.000543133737985
1532706809.961221,0.232763448849,-0.005373901031662498,0.0009653120659525,0.0002538697784595,-0.00444116660154,0.000320773723238
1532706810.043055,0.24441736526700003,-0.0033736178804675008,0.00070477370304725,-6.030577841199998e-05,0.01506346390897,-8.327230410509999e-05
1532706810.121988,0.261173882072,0.0134872833348375,0.00095444167442,0.00033241817316725003,0.0160387318601925,0.00042924248259424997
1532706810.201242,0.25887935693350006,-0.0067765682018475,0.0008811664850025,0.00033241209186599997,0.027068120310225,0.0008170201185875
1532706810.284775,0.30434001433975,-0.017017531287025,0.001214973691645,-7.310142674999998e-07,0.025803985345675,0.0004319603737335001
1532706810.36075,0.31121153009575,-0.0108188525556,0.00030310723541425,-0.000252619966187,0.0193085696212,0.0002285842147865
1532706810.441952,0.30703555755125,0.003933210528575,0.0001294161432005,-0.0003420004620175,0.040238116943275,0.00055398921142
1532706810.523057,0.32485330167425,-0.0017333956267249996,0.000205402471548,5.342757274075e-05,0.0043498873701194995,0.00127259249717
1532706810.6046991,0.41189391877225,-0.01000087061235,0.0009462906108975,1.0087714822999987e-05,-0.017086392263275,0.00094176537553
1532706810.681708,0.42106882531775003,-0.018811480901575,0.0038338639376225003,0.00040550519817724996,0.0179942846825425,0.000345196793646
1532706810.763785,0.5070950068905,0.010216511374105001,0.0029925630838025,0.001656784782365,0.0024195893430250005,0.0007573874389300001
1532706810.8433108,0.545279395515,0.01356271664729375,0.0062302349038749994,0.0024313732646575005,0.009535377574150001,0.0016061692567725001
1532706810.924528,0.5763127782425002,-0.023376125411225003,0.005245103804924999,0.0030651174567575,0.02169289071785,0.0009391100155525
1532706811.0007699,0.542078184745,-0.0068935682864,0.004164989494925,0.0019708865693574998,0.08364808717649999,-1.2679669567475e-05
1532706811.0838141,0.60270389748,0.013060274410074998,0.001635656212095,0.00034311399933899993,0.0021688219467525015,0.00075474244463
1532706811.162816,0.5223467770199999,-0.025669385827725003,-0.00018265693104400004,-0.0020971943437575,0.04325285127107499,0.001617064684245
1532706811.244653,0.53223117558,-0.030783720698600005,0.00022983382118075006,-0.005198352941700001,-0.007935143035674996,0.0010936947816775
1532706811.323924,0.48692684433675004,0.020190012215024998,0.0007454471536322499,-0.0038712240175275,0.035202760434425,0.000844206320915
1532706811.405564,0.4305229267215,0.023577377127375003,0.00034377617780999997,-0.0014769740101275002,0.051684798288575,0.00192074782739
1532706811.482683,0.44422820097,-0.01261758806535,0.0003491970237245,0.001025614888455,-0.007481306473825,0.0017471979342675
1532706811.564566,0.357547282987,-0.01655693153395,0.0010086741843675251,0.00022390932163975,0.08545513063025001,0.0006245588221174999
1532706811.644017,0.3852154856985001,-0.010842070987899998,-0.00216929535756,-0.001151976091845,0.044478226902600004,0.0016522917434725
1532706811.725409,0.387514025693,-0.030077240053525,-0.0030540346681899996,-0.0014634404485875001,-0.06324145371517499,0.0030488094607675
1532706811.804736,0.42906816677750004,-0.027980491738150003,0.00035459384374200004,-0.0017586585794674998,-0.07883679201325,0.0025471345088075
1532706811.884178,0.4123800510755,0.007022736018324999,0.0035596913147275,0.0012883159172475001,0.038988387204225,0.0014217829164649997
1532706811.960998,0.43305483158625,0.0143806137877825,0.003999335948202501,-0.0023030890644525,0.09788245289725,0.0016360156943125
1532706812.0446,0.48827142106625,-0.008974238702588247,0.000604262329405,0.0038477507579425,0.064156766314225,0.002812893053855
1532706812.123722,0.44483307495400004,-0.012068075703425,-0.00234300660104,-0.002254333928,0.0038624050505,0.003141000428205
1532706812.2048721,0.490654514274,-0.03215450071655,0.0034592456590450005,-0.00231121353689,-0.1304832858355,0.003051503123565
1532706812.286565,0.3883573965865,0.012498701444874999,0.00743507812555,0.004833569749192501,0.1498829621715,0.0029294979062825
1532706812.364206,0.37243267958825,0.023125748271675,-0.0014175954920599748,-0.0025848259810749997,0.1123938743625,0.0027912167367825
1532706812.445186,0.29746862761650006,-0.018167331496974998,-0.004837105469945001,0.0025232710353344746,0.004227091775724997,0.00401959534289
1532706812.524188,0.2519995264055,0.055224471556249995,-0.004888648282367501,0.0100066558326,0.08977772103329999,0.00579304653275
1532706812.604601,0.219972113014,-0.08232024415225,0.0018010856567375003,0.0030568378436025,-0.11285388750825,0.004448060186077501
1532706812.686002,0.20237898685099998,-0.097708964979,0.0050577461095824994,0.00461415425738,-0.054855092220325,0.0022733027031850003
1532706812.765375,0.18723866291850003,0.014238847248525,0.004493272981635,0.0033790806853375,0.014318855814062979,0.0038759375002100005
1532706812.843536,0.18612524690825,-0.0002629787391874999,0.0031227594541300002,0.0007004202564050001,-0.012629104369875,0.005673802351900001
1532706812.922851,0.2207533179655,-0.07722318257225,0.0038962113175799997,0.003400688686945,-0.044406686747475,0.0040332450300399995
1532706813.006502,0.21700348248,-0.001554928778765,0.0047782226616025,0.0005107742479702251,-0.0004303344764000072,0.002181176006075
1532706813.085458,0.20838487420524998,0.0098496637963,0.00548379433395,0.00044035094386750016,0.04966541288704998,0.0028292502253799996
1532706813.165208,0.2427434856535,0.0098907659871275,0.0036980753390625006,0.0013124270114125,-0.040509728711375,0.0043640650500225
1532706813.2461882,0.20218338837974997,-0.020151454440375,0.00325842310013,-0.0035843764340075003,0.1206659130795,0.0042637442807975
1532706813.327725,0.19868554812925,-0.048520893530324995,-0.0002397643020900001,-0.004044819592315,0.03625901684454999,0.004412874245864999
1532706813.406767,0.21440184816375002,0.04351729902910001,0.00405624215052,0.00010171253085749978,-0.024024386607100004,0.0047816641596575
1532706813.485992,0.22659880940200003,0.0101406213366725,0.0051417542579625004,-0.0028288035051212503,-0.0067438929375000095,0.0052562108089425005
1532706813.569195,0.2033485564245,0.046403024757125,0.005494563404657501,0.013359229717124999,0.029243672531024997,0.00640327205035
1532706813.644334,0.31004098473749997,-0.010400284361749999,0.0064064552450499995,0.0074928058363999996,0.09871242467825,0.0045159984493775
1532706813.725446,0.3286133104145,-0.08875496468975,0.0027400596373649997,0.0014801421964899999,0.063592964894,0.00129998528326
1532706813.804593,0.35448516265325,-0.03102776250012,0.006835264490325,0.006219813174125,-0.07162633043025002,0.002005034465965
1532706813.885381,0.3512766172095001,0.022214184399125002,0.016236056531075002,0.0036901158223500005,-0.06318297514195001,0.003561579062695
1532706813.9665,0.37511146602249995,-0.058603899265750006,0.0176092435285,-0.0068727107153499995,0.05374329965095,0.0029731900773275
1532706814.046613,0.3614964387185,-0.039543867738525,0.012794813427649999,0.0027853398073575,0.07416891046299999,0.0027806849655675
1532706814.127995,0.37109334098575003,0.04542603478845,0.0060319378458,0.005358245086275,-0.037706117161099985,0.00316847661296
1532706814.208469,0.36791676255725003,-0.052014485607949995,0.010078244316225001,-0.0013585578414550001,-0.00867996051275001,0.0027048065619900002
1532706814.2860038,0.3331709293395,-0.011735880799849992,0.011109505649375,0.009214872551375,0.09276664446475,0.0026858631649975
1532706814.36745,0.33090552915225,0.023753219964475006,0.016466623320925,0.007814579612325,0.02167854678624999,0.0024364482916
1532706814.4492118,0.361177259569,-0.00879461271479975,0.006802724427425,0.006538869537225,0.09788150819626,0.0024446371773825
1532706814.528148,0.30626175093225,-0.058431210107450005,0.0017496152307975002,0.006097382467325,-0.09211429894425,0.0023822990619275
1532706814.607448,0.281417473169,-0.011859170824197499,0.0042544885403775,0.0036814942979625006,0.1308796586965,0.0030195575777274995
1532706814.688749,0.26050343687575,-0.0539183881102,-0.0026711920145825003,-0.0032465410777349994,0.21866985085725,0.003968643754985001
1532706814.7658029,0.256853781288,-0.09469573248575001,-0.0030593071299000003,-0.005491775982575001,0.06574411647332501,0.00341815355813
1532706814.8460221,0.33150054572475,0.06257023881417499,-0.00114608700489225,-0.005272393543225001,-0.21311585090625,0.003377462180005
1532706814.92532,0.24752715719475005,-0.015960073210799997,0.0025283869479525,-0.0062582592919050006,0.048577113106125,0.003833006986215
1532706815.00639,0.22380398413025,0.05143961818145001,0.0022868508962825005,0.00883006389965,0.049022890551802506,0.0029273243516174997
1532706815.085386,0.18752060964425,0.081688026467,-0.004649509251779999,0.00347018153429,0.16278196521325,0.0037055142111099997
1532706815.1663551,0.1423005230555,-0.019327717762249997,0.0005690901166324998,0.011624942191975001,-0.115786943853,0.0056985546109749995
1532706815.246721,0.1199566639105,-0.057292166309725,0.0038283647826974996,0.0036137030239800005,-0.046479667768074995,0.0051752470527
1532706815.327744,0.07501226214854999,-0.12407994254024998,0.0014755068591524997,-0.0033575385463000002,-0.019807952286249993,0.0038953700068724995
1532706815.409732,0.062839211667925,-0.03688634805439999,0.0040209950828575,-0.008040248135125,0.021686399866849997,0.0027293720092725
1532706815.488561,0.10444484218399999,-0.007487178844999999,-0.0009723764038225,0.00026345221069649997,-0.05585120017445,0.00320118457161
1532706815.5721061,0.035432797122649996,-0.0075779718632875,-0.0008312892707925,-0.012365451335299999,0.05945672713675,0.0022195650975975
1532706815.647347,0.047079249036325,0.043398624561575,0.0014428147990725002,0.0035594718045250003,0.0368938045953,0.004727790297925
1532706815.728107,0.022573522848585,0.070473137319225,0.00389336895568,0.007643594266925,0.033144917832724996,0.0069974368862000015
1532706815.8072991,0.020906689115775003,-0.092629539555,-0.005276465901862501,0.0022946445423175,0.042075095979425006,0.004535303776835
1532706815.886364,-0.10316797134275,-0.09760654150474998,-0.008937341043175,0.0023759171036699996,0.0313433395797,0.0024202332825774995
1532706815.969243,-0.137265106013,-0.008662347208425004,-0.00215291200088,-0.00047862901375250017,-0.048886410613424996,0.00200262701629
1532706816.04853,-0.1196916215945,0.03284309391845,-1.4493860516999913e-05,-0.00154847495170475,0.013088236899615004,0.0024609169478474998
1532706816.1280198,-0.09939194724150002,0.006445540980599998,-0.0036808988382075,-0.006824409533825,-0.16017124403400002,0.0024907547009725
1532706816.207088,-0.11352642769425,-0.059764962591999996,-0.0016455807135875,-0.005234594035237499,0.008520898947500001,0.001248798304485
1532706816.288173,-0.19322962824825002,0.028472107730225,-0.0013687903015612499,0.00021736044769749994,0.010375491803222501,0.0005085035377187499
1532706816.3655698,-0.17847068758125,0.08003778036435,0.0010003682846150001,0.004488454805189999,0.0598221189056,0.0026724058942275003
1532706816.44649,-0.14783994211425003,-0.019995271913149995,0.005518873695025,0.00536053097602,-0.0502539202706,0.0007796987305615
1532706816.526052,-0.15447467529225,-0.10303543359224998,0.00014825945889249993,-0.004682121896692499,0.087582257087,-0.00267221550133
1532706816.6055882,-0.200951281392,0.021527363586625,-0.0053254917388225,-0.0024206105456725,-0.08146952203249999,-0.0012215027023325
1532706816.689817,-0.2039594151945,0.11211591069249999,-0.0034285591907875,-0.0053862597261625,0.15360238183500002,0.0020975373732550003
1532706816.7673051,-0.14469804673975,-0.0624350482791,0.00295155943681,-0.006147304783975001,-0.23317511966575,-0.0009639373217587498
1532706816.848897,-0.16788928822575,-0.0029131527064250005,0.0059340231675,-0.00011578114276749999,0.009155739706499993,-0.00579880245605
1532706816.929332,-0.137407930184,0.09812229596975,0.00378471281754,0.002316329716095,-0.002888824344650001,-0.00480903548842
1532706817.008418,-0.0948546768995,0.0257904724079,0.004338349746582501,0.0010542218264124998,0.03478944528305,-0.0030545820472975002
1532706817.087681,-0.09711972073675,-0.0101344808806975,0.0016353335339625,0.0041254917727675,0.10839870301925,-0.0037216610961775
1532706817.169259,-0.09881357162725,0.06821971162464999,0.0012500214313474999,0.0102492057561,0.0172834091396,-0.00343148775159
1532706817.248499,-0.054650326518149994,-0.007892817760125001,0.007839159100899998,0.00141437366867,-0.15632971807700002,-0.0038192333775725
1532706817.327856,0.030618988109400003,-0.026391999430825,0.0062733178068825,0.0005855769851185,0.02206734485652499,-0.004494416335225
1532706817.40761,-0.029180967727274992,0.0027068633127750076,0.0009217147872475,-0.0037722576349175,0.0316032734188225,-0.0038490276363650003
1532706817.491101,0.03635810179175,-0.033040245898825,-0.002858623292085,-0.00710087422235,-0.024554721824175004,-0.0043968075747525
1532706817.568426,0.028148606499075,0.05910247413227501,0.0030493047476474995,-0.0008254798921075001,-0.0074410998279,-0.0047873045597375
1532706817.647711,0.030753631452249998,0.10628206400275,0.0043193863671425,0.0029039903270025,0.052389311287474996,-0.00456764046457
1532706817.729478,0.04024591977935,-0.0002069909206749987,-0.00139043154639075,-0.0025155288917325,0.04506419120675,-0.003675491843385
1532706817.810481,0.03621659785085,-0.021351783544775,-0.001707954134375,-0.002074039692205,0.004729825095650002,-0.002571853018995
1532706817.889376,0.042214208539225,0.053350182402925,-0.005124613505752501,0.0026088188094825,0.060579618638275004,-0.00058148441307275
1532706817.97053,0.07971975640350001,0.004351229956924999,-0.0042507676759025005,-0.000448948917142,0.03387466307237501,-9.88180401435e-05
1532706818.049865,0.06914671746725,-0.030030497186649997,-0.005189724723265,0.0029419879132524997,-0.00029385756952500074,-0.0015685592930325
1532706818.129363,0.056187094498775,-0.026855138732825003,-0.005414951370425001,0.0011680024440310001,-0.09095320633224999,-0.003068134387945
1532706818.209316,0.06977825784800001,-0.026865210533250004,-0.0011977432875399999,-0.0081705728673,-0.033783403106750015,-0.0021353316117025
1532706818.289391,0.093373697297,0.050287886543325,-0.0018327904133475003,-0.00227706180598,0.02542687634765,0.0005465110420374001
1532706818.3711529,0.08744209094975,0.030968593734449996,-0.0027690582361275,-0.0024314335716525003,0.07148449178829999,0.002059622056775
1532706818.4508731,0.10388403420899998,-0.0817117818055,0.002178152293175,-0.0028485274812800002,-0.006650179891675004,-0.00095849703226425
1532706818.530563,0.11474527353524999,-0.026110996308552504,0.0036408683870950004,-0.003035416361215,0.004452671763774998,-0.0026560165679900003
1532706818.608222,0.136058858286,0.042133392853399995,0.0008511027291768499,-0.0021633186841675,0.023410171099500006,-0.0013489746851949999
1532706818.691769,0.13694011246350002,-0.04021275444455,-0.005477461486575,-0.006708018658325,-0.0184772319349,-0.000521931449805
1532706818.770668,0.13202159516275,0.025862191237000003,0.0001509235501474999,0.00494087252224,-0.14352279455,-0.0011239367410075
1532706818.849958,0.11696265926200002,0.0309420844846,0.0071307740682750006,-0.0075286663675,0.11673080989974999,-0.0009015640479625
1532706818.928625,0.10209435035999997,-0.09564075717574999,0.00400988450998,-0.0057005161407275,0.03955677273767501,-0.000736157549835
1532706819.00884,0.07601788685625,0.06525484827137501,0.0007126392500980001,-2.3697749390000182e-05,-0.0028436679997749965,0.00020209243790900004
1532706819.0890481,0.07924965570275,0.014935924264925002,0.0035376273634075,-0.0024639840983725,0.07942290062525,0.0005302028807425
1532706819.1686618,0.039937471619625006,-0.0021545508640425006,0.005307003478352499,0.00397387835732,-0.019090046630325,-0.0020458900265599997
1532706819.250009,0.02143346559185,0.05033337135680001,0.009057458368825,0.013068674284900002,-0.008979463574250005,-0.002067545621885
1532706819.331474,0.036639189266500005,-0.002122020859799999,0.015130891325499999,-0.0041595374538024995,-0.0662873850775,-0.0017529328889475
1532706819.410876,-0.003425516215225001,-0.07304223143075,0.00967892079925,-0.00044637124307000085,0.043197843043375,-0.00042961095513222497
1532706819.492467,-0.036100808583675,0.09236853634999997,0.0024142312906024997,0.013588553125024999,0.03384377726005,0.0008259400322950001
1532706819.57413,0.012673680950424992,-0.035381637980895005,0.0007805709931660001,-0.005066941202407501,0.032596591432249994,-0.00163896781733
1532706819.653509,-0.033852461311125,-0.08113423824829999,0.0033260663639674997,0.0026167981408025,-0.0186199435857,-0.0037757826660325
1532706819.735287,-0.046816711314275006,0.04548226416000001,0.0032473942615649995,-0.0009068465334149999,0.13530862273075,-0.002238232890415
1532706819.8088849,-0.03414838034657001,0.026859536609200006,-0.00668768662605,-0.006177395893707501,0.1136810418765,-0.00071969652144475
1532706819.89004,-0.14088723018174998,-0.036716044010999996,-0.016975597963525,-0.015933017749925,0.0875282512855,0.00045169238801375
1532706819.970928,-0.11923745134800001,0.0033829800314499996,-0.02382516933105,-0.00016189419756500005,0.1228428598755,0.0015091717095925
1532706820.052017,-0.20666250920175,0.032559309361775,-0.011344593166775,-0.0018924605369725,-0.1521451736295,-0.0010425830434725
1532706820.135719,-0.14725440833125,0.08073754329150001,-0.0022914977662575,0.003023339640255,-0.03495345963174999,-0.0006765298022465
1532706820.213381,-0.16023954792075001,0.0401300235272575,0.00091076793787125,0.0081232623188,-0.063342647619525,0.00147656260551
1532706820.294874,-0.18815515232925,-0.10659916775225001,-0.003675466091,-0.0020847054588540004,0.013840420145500007,-0.00256383468297
1532706820.374145,-0.20214689347950002,-0.014748389967225009,-0.0069184002615,0.0035569338006749994,-0.050668477106225004,-0.0051914721724
1532706820.455277,-0.20601387792675,0.1042772912935,-0.005314535596225,0.0005587741997275001,-0.036873046003175,-0.0033475358841049997
1532706820.532834,-0.21157145278725,-0.094089548515775,0.0034346025735525,-0.011439431365500002,-0.19523268970950003,-0.0025828627941124997
1532706820.614904,-0.18774768763125,-0.09351989598650001,0.012034467409275,-0.0052317981642075,-0.11661170159750003,-0.005958908435
1532706820.69462,-0.22379606516675,0.16517011994074998,0.006658514314825,-0.004457228178655,0.10204987828625,-0.0046220289246975
1532706820.777859,-0.18176391844099998,0.06537821998367499,0.00061495571756675,-0.0036420056050175003,0.06097965096619999,-0.0025503117628599995
1532706820.855418,-0.09889176146675002,-0.02685153314135,0.0029271136296450005,0.015430575244,0.016811459576199998,-0.007585887975875
1532706820.935124,-0.08407118633970001,0.09252827592275001,0.006547355176949999,0.00594845980616,0.09299273078124999,-0.01073139010515
1532706821.01583,0.08174368603024999,-0.0016108538509999994,0.003182325366025,0.00039894569837500013,-0.09601183769150001,-0.006739780843974999
1532706821.095446,0.024923087818999996,0.01188788305989999,0.005676810751925001,0.0033134129906149997,-0.11578995252975,-0.0041934887052375
1532706821.169365,0.08474972549625,0.035753951118075,0.0078018787360749995,0.008825163695425,-0.027024199888825,-0.0048062962792075
1532706821.2546911,0.13271877071725002,-0.030413094481525002,0.006765193393425,-0.0010608341769450002,0.146646256021,-0.0098554087812
1532706821.331464,0.12858158760475003,-0.028660011231425003,-0.0039468125091225,-0.0047741498740675,0.078857231466225,-0.010625537478675
1532706821.4127939,0.14841916803549998,0.1104860509195,-0.0036590985400925006,0.0044943328464025,-0.0043064715555149995,-0.006831899237600001
1532706821.493991,0.14451623623575,0.011947144889849999,-0.00186787638437,-0.007200883625525001,-0.049586983419925,-0.00535675839075
1532706821.573895,0.124021675154,0.042843133412525006,-0.00015537107740649998,0.001447332286165,0.061928524876785,-0.00567403834415
1532706821.6492062,0.13279134465625,0.080888873541725,-0.0008989348853487499,0.015872749844425,0.096445341584825,-0.005617067432025001
1532706821.727236,0.12098261094150001,-0.042414426098175,-0.0018324826357874998,0.0005969057362397499,-0.005613585281024998,-0.00744472318825
1532706821.808247,0.122171905769,-0.026699058351224998,-0.0066985700336,0.013462252026024999,0.027585394378725002,-0.006316656730800001
1532706821.88979,0.07994309738225,0.06736277150724998,-0.0060960170409,-0.0006489195084725,-0.0362399894954145,-0.005006910883245
1532706821.969159,0.08616604094525,-0.057163360964,-0.006131292694425,0.0036386523129624997,-0.048764659153975,-0.0046788163233224996
1532706822.049584,0.04523468191655,0.002932042546500001,-0.00088515648388,0.005450781095574999,-0.11806473905474998,-0.0073959263355
1532706822.1301038,0.03822212823917501,0.08492530956324999,0.0043937679614925,0.0030186151835025,-0.028953431696875004,-0.005676706193550001
1532706822.2107382,0.10603210122075002,0.017138159466357498,0.011187144586425,0.006702239869275,0.008964066511425,-0.0043316740276050005
1532706822.290342,0.1467724418305,-0.026214943120625,0.008511091679125001,0.00127966542463575,0.0813578299835,-0.005936957885875
1532706822.370322,0.1912727346535,0.014690613448349998,-0.002714305769685,0.0015559415792550002,0.072493208785675,-0.007279227975549999
1532706822.4454448,0.22108301289275,-0.04276963052495001,-0.0107778417439,-0.0097414180584,-0.030652457662074993,-0.007056902030925001
1532706822.522384,0.22113357208675,0.070353801198425,-0.00795791188435,0.0008653702039112502,-0.10980023158635,-0.005608895378699999
1532706822.601681,0.18592733515549997,0.055052956729975,-0.0017535343831375,-0.010166561807225,0.042671079652549994,-0.00506115953462
1532706822.679107,0.13848127410650002,0.0228155517400275,0.0005262795611872499,0.0023199143791900008,-0.00917078192625001,-0.0042558003042949995
1532706822.760257,0.05025714854445001,0.062165357788275005,0.001017595134035,0.005981896477067499,0.14206887533775003,-0.006178356176274999
1532706822.839255,-0.012699465495374998,-0.025363804563325,0.00041238631062274995,0.006499244807152501,0.09171881877675,-0.00945407158605
1532706822.9184759,0.015903699959325,0.009973933816231,-0.006622438204212499,0.0024012246988125005,0.14049547787032501,-0.0137900482383
1532706822.999639,-0.020501509675337502,0.052440612138,-0.005395644849947499,-0.00124172142933175,-0.1513121460995,-0.012840978773525002
1532706823.0769641,-0.03268037765395,0.011946590657449997,-0.0013082128850550002,-0.00029089207155025,-0.29308818652299995,-0.010237813926725
1532706823.156625,-0.053511230715900006,0.052905164580225,0.012295322502475,-0.0077613444342000005,-0.073670617815675,-0.01187567440435
1532706823.238293,-0.08635974101624999,0.03474688081729999,0.0038216131892225003,-0.0072981706921,0.059384428037500006,-0.012339380805225002
1532706823.3177938,-0.109201924531,0.11978356761200001,0.0010450214840040002,0.0035445699220174997,0.1079554519605,-0.011759074131175
1532706823.397068,-0.061177611161775,0.099218163484,0.0018756061313874998,0.00012357169804725,0.11923571032800001,-0.01232581053545
1532706823.476349,-0.08871600755900001,0.0053000645686750005,-0.0002821225538925,0.011746411793275,0.143916559821,-0.015192076844099997
1532706823.555429,-0.041127787521400005,0.08527647184500001,-0.007623895782625,0.008707365621900002,0.029623577603500012,-0.016718738916625
1532706823.6371331,-0.070496550248175,-0.04996591377095,0.0006544134781227601,-0.007948048726024998,-0.1318328890405,-0.016157431443275
1532706823.715648,-0.051124725320625,0.0355423715361125,-0.00022495995252749996,-0.0014526715439399998,0.00011771997710000037,-0.015761530339025
1532706823.793417,0.05453190654540001,0.098421713898025,-0.00032807325906499994,-0.008619710328675,0.012095215180250002,-0.016035423134825
1532706823.874918,0.04809186371223,-0.033281883866099995,0.0057326918832850005,-0.016285144923,-0.09589908275039999,-0.022071725809775004
1532706823.955942,0.08447110143674999,0.15372668434975,0.008569060622825,0.007282832747850001,0.015913827522350002,-0.025857267515675
1532706824.036161,0.0772832889457,0.18215712947525,0.00337689973208,-0.002647030063845,0.08654940309675001,-0.026559574190799996
1532706824.113827,0.09066301521124999,0.0835270736505,0.002752857775435,0.004604356137315,-0.02785686657045,-0.027934612378250002
1532706824.193124,0.08916492494365001,0.14174613448625,0.006444385670199998,0.006961028173150001,0.045346148786749974,-0.028311513013900003
1532706824.276614,0.08602783903000001,0.04384626502677501,0.0060916245741749996,0.0021611741327125,0.020472035376724998,-0.029672773802
1532706824.354406,0.11572232662899999,0.030287288595249998,0.005961412442074999,-0.005829581733325,-0.016807417194699997,-0.031421829370649995
1532706824.435611,0.159126309995,0.08914205267460001,0.007465170802725,-0.00892291418775,-0.061588466,-0.032861765386025005
1532706824.51528,0.16709786502325003,0.1358883303845,0.014411074328225,-0.009161237472674999,-0.00030638702014999797,-0.035768734261075005
1532706824.597166,0.16201811081475,0.1646229027005,0.018164944320575,-0.0297206218179,0.06333639215350001,-0.04159354337185
1532706824.679226,0.16092317597275002,0.15280435815775,0.02306966685195,-0.0001735375628799992,0.09557507506647502,-0.046485518708775
1532706824.7583349,0.18039685256300003,0.3707305158705,0.018900670338675,-0.005726431199715,0.06152034098440001,-0.05360646640750001
1532706824.838353,0.17146546558975,0.17179594967075,0.0090913581227,-0.0075818355109750005,0.17032838094075,-0.058338426366000014
1532706824.91976,0.17159861291824996,0.22518001543425004,0.0056606258256875,-0.0060268689499,-0.09511993033049998,-0.060993216889249996
1532706824.998831,0.1684915626545,0.27902464591525,0.010196348889925,0.014627490692725,-0.0124234975596,-0.060952514726750014
1532706825.0785599,0.08097327436875001,0.28901187952325,0.009599119788675,-0.0073700256347475,0.062478819476649995,-0.0649437564525
1532706825.1600971,0.0429405544181,0.13915147489475,0.0084837289247,-0.001741158781945,0.2028810661485,-0.06591183923524999
1532706825.239801,-0.011930995385999999,0.2062888814445,0.0053326083478500005,-0.025168586907,0.25482519575225,-0.06837137197974999
1532706825.317194,-0.017687817881899992,0.2778619018885,-0.0121279458329,-0.010005072040675002,0.175099683981925,-0.06478385339475
1532706825.3962948,-0.052394075469625004,0.34252526032450004,-0.0052255404302925,-0.013490926412874998,-0.08587408799832501,-0.07021274699499999
1532706825.478077,-0.005425289721824999,0.15091720601199998,-0.00394978419274,-0.019498574154725,-0.21052477487674998,-0.08333482435725
1532706825.557608,-0.063110896446175,0.45871031315525,0.00415776532881,0.0025505122909999997,0.055832641276924985,-0.08966128064375001
1532706825.6368392,-0.0132728925093,0.6615950598825,0.0069102123936000005,0.010522467463124999,-0.28537998079275007,-0.08273010398
1532706825.721116,-0.08942886150275,0.18141390920175,0.012357939166025001,0.009523197145049999,0.23601561294725,-0.07977696818749999
1532706825.798306,-0.0746137400545,0.0412111234308,0.006441089273525,0.0039542684598625,0.18561498555175,-0.085745423778
1532706825.881,-0.065823283649,0.22327046395650002,0.0026658064454525,-0.019044987696124997,0.086885326362,-0.09111463236575
1532706825.959556,-0.019269939113250003,0.39203174750424996,-0.0047276648688275,-0.016940112968475,-0.044435203770525,-0.08683830313275001
1532706826.037979,-0.04242401354585,0.4960653047295,-0.004249832804265,-0.00272727232957,-0.17477241828875,-0.08123593565125001
1532706826.1194198,-0.088493049458,0.32680250245525005,0.0013279885357424996,-5.894577272749996e-05,-0.09715401250300001,-0.0836817732105
1532706826.199393,-0.06499441795210001,0.359011006458,0.0028508750765850006,0.019714707463875,0.17513998107275003,-0.08618734970475
1532706826.2788699,-0.129662813859,0.3523781204775,0.001713846982385,0.007720929804649999,0.13557686002225003,-0.086374410892
1532706826.35814,-0.08425740938525,0.282624030604,0.0020343304986725,0.013785944290775001,0.07322903895440001,-0.08428092822475
1532706826.43618,-0.1304515788235,0.21427440424325,-0.00117371305469,-0.023794063623425,0.023458572259,-0.08594320937625
1532706826.519491,-0.10009120473424998,0.19101974441400005,0.0017413771240849998,-0.01746087425755,-0.14817318980650002,-0.0843894874135
1532706826.598954,-0.139412297867,0.42633388603575,0.0036712481986949995,-0.0256868742704,-0.2496699104435,-0.08266218009649998
1532706826.680293,-0.12954768050924997,0.30208420123525,0.017388853524425,-0.023760712225250002,-0.003294289833500025,-0.0820358794205
1532706826.755913,-0.12905955984399997,0.37630095533275,0.006279652202389999,-0.006614580957157501,0.18102524399849998,-0.08330498265925002
1532706826.8371,-0.12386537860575,0.50727105252725,-0.006884127914225,0.003223644937115,-0.11603625783499999,-0.08150170274375
1532706826.91222,-0.198631977706,0.37889402196375005,-0.004878156412004999,0.0183817429837,0.1787055832335,-0.08167522547275
1532706826.992529,-0.15134307558525,0.24459765050275,-0.013319118752849999,0.019991021587875003,0.12295730885249999,-0.08290085713425
1532706827.0733109,-0.18849154291575,0.1034108310576,-0.009505521419525,-0.003148923471645001,-0.016923916542675,-0.08450876301775
1532706827.150732,-0.22579370423825001,0.07993936110475,-0.011163845155474998,-0.021998191767625,0.17529502371025002,-0.08550944675174998
1532706827.227793,-0.12286309941375001,0.41443209221675004,-0.0023480910187975,-0.017685662020549997,-0.37369836862725003,-0.0815341637135
1532706827.3090198,-0.21457288444425004,0.4185630841445,-0.0009149793217525001,-0.023831346912075,0.21229676576724998,-0.079335038646
1532706827.3905,-0.078297582058,0.06328430187457501,-0.0114895285636,-0.0252422438259,-0.02587505239025001,-0.09046127618225
1532706827.469832,-0.09104326049925,0.47941893692975,0.009542879571175,0.007438152822904999,-0.41368261774225,-0.09361504136075
1532706827.549358,-0.080306155027925,0.72187538298,0.017734519208974998,0.021577635019375,-0.032305600641724996,-0.08280338742349999
1532706827.6290839,-0.11481990296765,0.250853425183,0.01563391331505,0.021715981250375,0.027507019946000008,-0.080387159397
1532706827.710367,-0.093952996413,-0.014751575637749998,0.016679059388874998,0.0123956904489,-0.006201092911999995,-0.0892407989225
1532706827.790288,-0.041313867099472504,0.153338215491,0.0123635868496,-0.008076147081125,0.08091202362575001,-0.09223449685724999
1532706827.8711538,-0.02016378737124999,0.3587512163225,0.00515469229608,-0.016085391595650003,0.070765113350225,-0.0865101217405
1532706827.950335,0.059973634398075,0.44704158319875,0.0047666019073975,0.001529344894125,-0.05405876631385,-0.081794488472
1532706828.032629,0.0770687819434,0.327265030483,0.0059446489225,0.0006465949537325,0.010860263823650004,-0.08551765167449998
1532706828.109861,0.1333073065875,0.23165801086124999,-0.00024097302135224995,0.010457666609275003,0.077635827541325,-0.08717178623075
1532706828.19115,0.08513901397925,0.40780055462575,-0.00483054225582,0.0243913497518,0.201093247185,-0.080086028202
1532706828.272064,0.12907346887525,0.3196314793735,-0.010543798276325,0.00931524289515,0.1387797605945,-0.07207557744200001
1532706828.3503811,0.11259998402924999,0.05062189164330001,-0.007039685720049999,0.006046197116025,-0.053508121566900005,-0.07282670760225
1532706828.4311712,0.09893337610085001,0.110434676575,-0.006181937076975,-0.00657316127514,0.12766219905875004,-0.07993137793225
1532706828.510307,0.12971547360225,0.34522401849275,-0.006095083851492499,-0.011935981979525001,-0.15643827860675003,-0.08001819871075
1532706828.589473,0.10137130220525,0.46761759754625,-0.00247432873531,-0.0012689621555525,-0.03560519864393499,-0.0736402927965
1532706828.670614,0.14447527862025,0.38101922777875,0.00021551133427249992,0.011957718242624999,-0.31849453954874996,-0.07153598568625
1532706828.748567,0.09880514855675002,0.10375756033675,0.00342920562114,0.007006546090999999,-0.044342073184925,-0.07835047198225
1532706828.833759,0.14274912091449998,0.295486861682,0.00017223406269025008,0.013632228933350001,-0.019783165862325,-0.08110824547500001
1532706828.915123,0.14519064917525,0.45125687044675,-0.0027372692328175,0.02473263205745,0.020924423013,-0.07573898456150001
1532706828.995961,0.12660276292225,0.23302505574924998,-0.008089591018125,0.0059266896482,0.08872823038875,-0.07625686826375
1532706829.075083,0.11636741611425,0.19952052863949998,-0.010822770996874998,0.02178368804525,0.020129706330850004,-0.07958963914549999
1532706829.156507,0.15367168519925,0.328276743948,-0.008990587352250001,0.0067021054294975,-0.004140721822749993,-0.0801888661105
1532706829.235733,0.147185252956,0.22100464512775003,-0.00874084315465,0.008178669837325,0.07160122977649999,-0.07571723208999999
1532706829.314881,0.12033031742325,0.30545540201324994,-0.008436807229674999,0.00478501390498,-0.03269250185897501,-0.07107746102575
1532706829.396242,0.13297283640950003,0.26704443879125,-0.005500010944965,0.004381707376492499,-0.06362358588465,-0.065285228044
1532706829.475989,0.16144653423699998,0.1564852153285,-0.010396437336349998,-0.0025305663184100003,-0.030101584511225,-0.0635524372755
1532706829.558335,0.16021284343875,0.2987878492325,-0.010969147433824999,9.984383069407501e-05,-0.158341226254,-0.05655622637749999
1532706829.637689,0.1472205115495,0.24742491644624998,-0.000823432114175,0.0014002365831200002,-0.11672651952500002,-0.049302392157399996
1532706829.719463,0.142101734344,0.22946705807575002,-0.00172995284894175,0.014198937953375,-0.010733790891300006,-0.047938374261225
1532706829.800832,0.13033542730500003,0.15711617186074997,-0.0074432860865,0.017219367927424997,0.162686978141,-0.047355279743399994
1532706829.879932,0.17672737560575,0.1644154322895,-0.013398220200524998,0.0063739813571975,0.15944079345587503,-0.04790842545425
1532706829.958991,0.136029549242,0.059343814825750005,-0.0222465691114,-0.011202386079025,0.13013485766400001,-0.046115992471425005
1532706830.039967,0.15054934935699998,0.11472924966275,-0.026996504142625,-0.013715755957825,-0.18417275345225004,-0.042829439168275
1532706830.121176,0.1645139596315,0.14626080519950002,-0.03279157834277499,-0.022313038214925,-0.10174910738674998,-0.041568694146350005
1532706830.202404,0.17619254759324998,0.12028109793,-0.041072756082025,-0.012648008762825,0.02576891476377499,-0.04432657419515
1532706830.277569,0.17231610012100002,0.28787089608675,-0.039487694209475,-0.0049170646415925,-0.19860154312150002,-0.043545609879799996
1532706830.357302,0.154569309975,0.28626561852675003,-0.026326484744325,-0.0025032921436,-0.095568859654375,-0.037403557494725
1532706830.4345,0.14768306077225002,0.139772480762,-0.0183765707963,-0.0055530766648975,0.007214324916075,-0.03248720582235
1532706830.511363,0.13701108864150002,-0.07281204097374999,-0.01541813788815,-0.0197736558833,-0.1204679227605,-0.029561290278475
1532706830.588227,0.068135437200825,-0.07746741000474999,-0.01917202265505,-0.025518668991275,-0.12893053006800004,-0.026578476169325002
1532706830.669533,0.1100306026925,0.08320512363775,-0.021745231330175002,-0.026585712901500004,-0.31382551537125003,-0.026223324601125003
1532706830.74891,0.10974435592175,0.17064509113600002,-0.009821793694975,-0.015515007451675,-0.450608901188,-0.027891111853425
1532706830.829059,0.013782483075249995,0.25833373882825,-0.0023414493615325,0.00714896407672,-0.1145028629335,-0.02682813226835
1532706830.905915,-0.029939683202500005,0.19165773794075003,0.0057035409985750005,0.018057054460925002,0.18306539890125,-0.0213395546195
1532706830.9868028,-0.046035732871975,-0.026636496027875003,0.007693103908,-0.00187094717673,0.39649582665125005,-0.015200175931574997
1532706831.066983,-0.0518266245578175,-0.27162906289350003,0.0009237367277125002,-0.0336177352135,0.15348752491700002,-0.007160004281775
1532706831.146755,-0.0035623998629999987,-0.16542119675325,-0.0035793117432375,-0.026699514373475,-0.139088872985,0.0013086280698
1532706831.2260962,0.04593840876458251,0.15253747993125,0.002573711545585,-0.0395363963313,-0.23833863876425002,0.008741384721399998
1532706831.309425,0.023392933306882496,0.06551329367049999,0.0060830455190000006,-0.028955993195499997,-0.1928459005635,0.013375599394925
1532706831.388411,-0.07401511366725,0.0888368832389,0.012914704102725,0.008587497820130002,-0.11352023643028002,0.014400579097100002
1532706831.467825,-0.024889557334727502,0.14007203462149997,0.012154824445225,0.025909981216675,0.23955316636549998,0.014633855649025
1532706831.548015,-0.13196999440025,-0.28148714385975,-0.0083836844484725,-0.008800295245675,0.5404453379325,0.011762163226275001
1532706831.627232,-0.13475246302875002,-0.3885001208255,-0.021384880495850002,-0.006514060788180001,0.0611181502864,0.0143301455677
1532706831.706814,-0.08697323096475003,0.07163442973875,-0.003758679919305,0.002855586191315,-0.31570249494725,0.023859185576775
1532706831.7839198,-0.17925870015,0.063041597960175,0.016492200209275,-0.0035480806832575004,-0.008631549302650005,0.029987708715074994
1532706831.863442,-0.14747113436175002,-0.17456545650350003,0.01917115674385,0.005564033396325,-0.10464391956970001,0.029328742555175
1532706831.942808,-0.1991689466765,-0.13834596394375004,0.013319323044575,0.005991835511949999,0.1009386064997025,0.029694838187575005
1532706832.0227141,-0.025482273648124998,-0.019792674346074998,0.0058308227294,0.0084187323694,-0.01586773739874999,0.036289803304975
1532706832.101747,0.023361295824725008,-0.33281566888375,0.00345861265022,-0.016640622256100003,-0.01295236832775,0.034107024018599996
1532706832.1827528,0.044523004391820005,-0.45533997184200004,0.011460078463075,-0.027589876303925006,-0.35151253545775,0.02836614989495
1532706832.2618911,0.005852534185249995,0.131524130611675,0.016872213644,-0.00507962836808,0.20474497934999997,0.0361894761459
1532706832.341275,0.05680921766495001,0.18917133478425,0.0074972446263,0.005435854731924998,0.38489982911425,0.051567786140500005
1532706832.420793,0.045938197729949996,-0.25878768890750004,-0.005107593173990001,0.030863497333724996,0.26784120821225,0.05527479978575
1532706832.499961,0.05383905880912499,-0.35933792099350004,-0.012055917685050002,0.02972837271395,0.13301002854675,0.052140113996000007
1532706832.581207,0.04996718538415,-0.466004918009,-0.018849564675,-0.00288616339045,-0.08790503141724998,0.05411433177725001
1532706832.662646,0.03365091865070001,-0.23237513356,-0.00935515603855,-0.0062344274465275,-0.242266742079,0.06512401519975
1532706832.743989,0.10317128335425,-0.27364653554075,0.0037247312545099997,-0.022216800229099998,-0.17842487019474998,0.0716565728555
1532706832.823068,0.00033715732474999885,-0.36649677280775,0.0069057146870500005,-0.027556202081724997,0.06058858220624999,0.06759969815274999
1532706832.902267,-0.020206559763275,-0.15693316479525,0.0030297196559125,-0.0004979066781849997,-0.04372755128597501,0.07025443768499999
1532706832.984094,-0.12571487742307502,-0.1344811522695,0.00635469355125,0.00645538024722,0.1028243432174,0.08081670814200001
1532706833.063268,-0.05486240757415,-0.3692006946165,-0.006964019547725001,0.0052742171087375,0.019360139599749998,0.0879625642115
1532706833.142526,-0.07945456642875,-0.58179655102,-0.0010496857742100002,-0.0007777808986749999,-0.33877592488175,0.091311588729
1532706833.221704,-0.17857467228175,-0.49931446786025,0.013561051507500001,-0.005242428958207501,-0.0647016796804,0.095170413807
1532706833.302794,-0.17609099360424996,-0.35463310346375,0.017960767123275004,-0.02452758247045,0.14824168353724998,0.103576818471
1532706833.382233,-0.22597784672350002,-0.46547546749075,0.014622111731324997,-0.024511793091025,0.1874447558855,0.10781790856925
1532706833.459636,-0.16818844587999998,-0.47506613079175,0.013463051756274998,-0.011487698789600001,-0.039566407649025005,0.1042546088325
1532706833.539016,-0.16552786360225002,-0.24155685725025,0.007244677394574999,-0.0028683792957525,0.16809121899225,0.101249961897
1532706833.622314,-0.20299380622850002,-0.341761526766,0.0009204642324375,0.0062845384243275,-0.22586280508325,0.11468944208100001
1532706833.700725,-0.19363271569,-0.48950731261075,0.007431915866575,0.007746901741399999,-0.17201634618599998,0.12757846444374998
1532706833.780042,-0.23304616416400006,-0.7072267551025,0.016196143570450003,-0.00031533477241575,0.012886312096175,0.13347384482275
1532706833.861071,-0.22687574722875004,-0.5246654316800001,0.009421349481924999,0.0106795663658,0.244513042528,0.14144101750625
1532706833.9420972,-0.25242235231675003,-0.5533582342825,-0.00023327392998175004,-0.012276267307099999,0.1469243925535,0.151230483946
1532706834.021545,-0.23004397853925002,-0.8035197521174999,-0.008742623210175,-0.023215365443325,0.10826499830149999,0.1521008794105
1532706834.1007528,-0.25988401157375,-0.574723918705,-0.00508670130325,-0.023238046053275,-0.17076820393550002,0.15091351224400001
1532706834.181951,-0.19756937041324996,-0.40058362576150003,0.008432588000425002,-0.0108206248174,-0.3244731144285,0.156887470901
1532706834.262624,-0.2360916132325,-0.5326549290025,0.013532418224874998,0.0007894483878855,0.0317104786611,0.16256319412249998
1532706834.341696,-0.27094063159225,-0.7014211304475,0.00690684166835,-0.000229736340264,0.15170473878825003,0.16180120339625
1532706834.4228199,-0.341527915693,-0.658968204285,0.006331228931822501,-0.0024083317495050003,0.053134672033050015,0.16318420705525
1532706834.499552,-0.253587109881,-0.5379699875375,0.0089502850101,-0.00169902074213,-0.110788086877825,0.168420631715
1532706834.579335,-0.27273910549549996,-0.45581509360175004,0.009142738633874999,-0.0071040616417499996,0.064526480259025,0.180043264574
1532706834.658363,-0.15956860257275,-0.66240282276,-0.0005038749945005,-0.0032173015315500003,-0.19242874614372502,0.18428446006625
1532706834.739906,-0.1886356886885,-0.8320088888325001,0.00199832342251,-0.008259304851525,-0.13088014991500002,0.17652336622624998
1532706834.8211632,-0.15813796732500002,-0.6180047989674999,0.0069214664451,-0.02219499604245,-0.02334667934645,0.16795412869675003
1532706834.902331,-0.18420447370600002,-0.45334352296900005,0.010221561593550001,-0.0147675471059,0.09149092079349999,0.1731145740615
1532706834.981698,-0.22901118264925,-0.506508625645,0.00968377295605,-0.008876097802625,0.0844641269575,0.17445688413225002
1532706835.0608802,-0.194742928759,-0.6730098570975,0.007159138249549999,-0.00668786935183,0.19291900054825,0.16334738977024998
1532706835.1418948,-0.202223438129,-0.5447599100074999,0.0019394262731075,-5.121013914999978e-06,0.064799363719,0.15241350492575
1532706835.222057,-0.25086563736825,-0.37828872202175,-0.0045640765969325,-0.00052028216342875,0.11045862686924998,0.15555916848675
1532706835.303294,-0.28400258831,-0.49150041837575004,-0.00863028975315,-0.005166732407775001,-0.08172310109145,0.16949225386375
1532706835.384597,-0.20905499026725,-0.646603630505,-0.0010364159854710003,-0.0074590426681,-0.16751895144600004,0.17536864561100002
1532706835.463782,-0.1628444033165,-0.705716391195,0.0159349201689,-0.018146756817225,-0.27804748823275005,0.17069623636325
1532706835.542614,-0.12247752995,-0.5263106634835001,0.01848302886855,-0.026962538596475,-0.024334953477225002,0.16525368110849997
1532706835.622023,-0.06777480509155,-0.31269441762825,0.020477439653049996,-0.012112019604625001,0.049251298994000006,0.17079925755550002
1532706835.703482,-0.019144500660025005,-0.42749237824575,0.0156782970218,0.0031042156109250003,0.23255996285875002,0.1745984971475
1532706835.783028,0.02058939554095,-0.58227112261,0.0025683838601425002,0.008440615953600001,0.17200172306974998,0.17029223480900002
1532706835.862133,0.023868802404675,-0.5917131409849999,-0.0018398878441450001,0.006627843899045001,0.026428291503199995,0.16517513533575
1532706835.9433892,-0.026489973071572498,-0.5342502722875,-0.0019136181387200003,-0.0009118180639857499,0.0013395155322499935,0.1671330395035
1532706836.022793,0.010642844611750003,-0.5909253431150001,0.0029062787997674996,-0.007381404049900001,-0.10897697083075002,0.1697959956545
1532706836.102438,0.030586501470025,-0.538798087135,0.011610138641099998,-0.011423895796875,-0.060050978351325,0.1696885950375
1532706836.183648,-0.030220353136674996,-0.56672880599,0.014125611748775,-0.020632609285799998,0.068692600556575,0.16670834196525
1532706836.263862,-0.081871038336925,-0.47188385470725003,0.00909836462435,-0.01219677062805,0.14184215816625,0.16763848734625
1532706836.3433778,-0.06016183309825,-0.37087140209400005,0.0051839694236675005,-1.9601547665000106e-05,0.08300778671475,0.17348512595575002
1532706836.422564,-0.0687264578875,-0.5772695807150001,0.006057378647825,-0.006194024478949999,0.02628837263978,0.1754945789255
1532706836.501883,-0.077452220919,-0.654342918595,0.011425444799975,-0.0019491510791897501,-0.13657797305675,0.17274483602725
1532706836.583116,-0.07180788303249999,-0.45440682327325,0.012502422770724999,0.0016536554871104151,0.028767008205975,0.17437737998699998
1532706836.662484,-0.044620240682999995,-0.5100948853627498,0.007771016375975001,-0.008324353435874999,0.099400353373,0.17626210632075
1532706836.7413712,-0.05026631290502501,-0.5997588281324999,0.00120479593415675,-0.008928750874425,0.07794155988189999,0.173824209419
1532706836.822446,-0.048336260813400006,-0.579580870375,-0.0022591316314475004,-0.012824685928824998,0.024156705607850004,0.1702690302275
1532706836.901394,-0.036040399543775005,-0.4220150109655001,-0.00011826294345450002,-0.0031695606580699996,-0.06619768169055,0.17166287732425
1532706836.982601,-0.052869410866225,-0.42864953910075,0.0045549472654925,-0.00468144721563,0.08223280736475,0.17430416917450003
1532706837.062338,-0.07858184585514999,-0.6291821026925,0.0055993527374750005,-0.010124453995075,0.033230569892499985,0.17243729688849999
1532706837.1415892,-0.0925843082785,-0.6167506669975,0.006070981654575001,-0.010896754447024998,0.13212596249675002,0.16970650967925
1532706837.222827,-0.06639524442675,-0.49446766826449995,0.0008563073351855,-0.016090448355449996,0.09946952564324998,0.17148817991475
1532706837.302286,0.0014703035260750022,-0.42852667880175,-0.0047899398499724995,-0.00227361054148925,-0.13265878454325003,0.17706637104925
1532706837.383606,-0.036892244287625,-0.49813972779649984,-0.0018212236150325,-0.00828812541555,0.014447435035616503,0.176431792543
1532706837.463667,0.050657056739400005,-0.6176594960975,-0.00076878009435475,-0.008732508940024999,-0.034231381174775005,0.1727030354765
1532706837.543951,0.0186531865554,-0.48233887737075,0.0039886201653724996,0.0014459014653925,-0.04577647962375,0.17315320333675002
1532706837.624181,0.07202783212620001,-0.4532077991290001,0.0045959621348675,-0.012316910752599998,-0.13767278015425,0.175496224549
1532706837.7035868,0.11292270071874996,-0.6677134531150001,0.013294337611775002,-0.019425925264450004,-0.077843524295,0.17007804289075001
1532706837.783943,0.066427707053,-0.53109736550325,0.009553455025025,-0.019244465989725,0.11277407380725,0.16375141452749997
1532706837.862863,0.036911546269099996,-0.37003547263725,0.010033197585525,-0.013043127314475,0.27516749267475005,0.166834786493
1532706837.942009,0.06562507688075,-0.44063516886599996,0.0036676767396625004,-0.015202364023274998,0.23899985688775,0.17257844565775
1532706838.02311,0.11507674191975001,-0.5973997471199999,0.007988052208575,0.00034578866023749996,-0.19931445337,0.16974732652524996
1532706838.101896,0.12521399998,-0.484590492188,0.010454950911875,0.001239979809965,-0.09470290091825,0.163695883129
1532706838.180929,0.09813000086275,-0.57078429549,0.009132475496875,-0.014487284070175,0.0481835237223,0.1590830878335
1532706838.263936,0.11663095644150001,-0.4992518693410001,0.00661841652925,-0.006270015184185,-0.064644727279175,0.1566234834545
1532706838.341886,0.19217952517825002,-0.35268549756925,0.008517858319350001,0.001670919847375,-0.05248307947417501,0.15526488034200003
1532706838.421431,0.16526393079124999,-0.38333981755725,0.00132444292719,0.0059462342135750005,0.241791580124,0.15339915701625
1532706838.500667,0.11537800225424999,-0.5198382381225,-0.0018110769859175,0.007821183503200001,0.066596951028825,0.15283237361725
1532706838.581906,0.08503290516462501,-0.6201686814775,0.0051858649649025,0.0036923987651624997,0.002964995608250004,0.15128662282174998
1532706838.661252,0.06314461748147501,-0.54989968839,0.0048840230035075,-0.0149418075517,0.10215571225225001,0.15428865133050002
1532706838.740621,0.10005648086775,-0.5449334363160001,0.0034122520447375003,-0.0211025248775,0.037270272986,0.1578574657095
1532706838.820937,0.07986268825574999,-0.4979101781335,0.00956218340005,-0.022836295623075,0.11587274406725,0.15888259551675
