time,alt,height,lat,lon,pitch,pitch_std,roll,roll_std,vel_x,vel_x_std,vel_y,vel_y_std,vel_z,vel_z_std,x,x_std,y,y_std,yaw,yaw_std,z,z_std
1532706803.559165,76.7694378518,32.0694370889,49.4020918899,2.7948594044200004,-0.0696725547074287,9.817881360520793e-05,0.007776521848267463,9.372061139518866e-05,-0.00010049680248245,0.00120416097343,0.001404523723655,0.00114826462232,0.033063255250499995,0.0011331816203900007,-282.76340901778735,0.0305999685079,324.3553856402117,0.0300404783338,0.8515282807210962,0.0011556189379443179,-41.46677362809707,0.033063255250499995
1532706803.640853,76.7693576696,32.0693569067,49.4020918908,2.79485940515,-0.06969104978331395,9.817881360520793e-05,0.007787002319483722,9.372061139518866e-05,-0.00026142069238845,0.00120416097343,0.00123627545392,0.00114826462232,0.033063255250499995,0.0011331816203900007,-282.76335602470846,0.0305999685079,324.355485729747,0.0300404783338,0.85153219111645,0.0011556189379443179,-41.46685381329559,0.033063255250499995
1532706803.7197962,76.76930292784999,32.06930216495,49.4020918913,2.794859405735,-0.06969155566237253,9.817881360520793e-05,0.007825831815336765,9.372061139518866e-05,0.0003200759235735,0.00120416097343,0.0014350046428950002,0.00114826462232,0.033063255250499995,0.0011331816203900007,-282.7633135593496,0.0305999685079,324.3555413342964,0.0300404783338,0.8515240662710608,0.0011556189379443179,-41.466908556025004,0.033063255250499995
1532706803.798836,76.76926140485,32.06926064195,49.40209189205,2.794859406495,-0.06969659126407743,9.817881360520793e-05,0.00782712262751575,9.372061139518866e-05,-0.000622171472196,0.00120416097343,0.00169035982779,0.00114826462232,0.033063255250499995,0.0011331816203900007,-282.76325839140003,0.0305999685079,324.35562474266817,0.0300404783338,0.8515195069474558,0.0011556189379443179,-41.46695008089438,0.033063255250499995
1532706803.88025,76.76911692224999,32.06911615935,49.4020918936,2.79485940623,-0.069685233678047,9.817881360520793e-05,0.007797000659428974,9.372061139518866e-05,-0.0011671232627695001,0.00120416097343,0.002508209533465,0.00114826462232,0.033063255250499995,0.0011331816203900007,-282.76327761016137,0.0305999685079,324.3557971236138,0.0300404783338,0.8515322469216076,0.0011556189379443179,-41.46709457319224,0.033063255250499995
1532706803.9591,76.76906574979998,32.0690649869,49.40209189465,2.794859406145,-0.06969437934845159,9.817881360520793e-05,0.007784765713208547,9.372061139518866e-05,-0.000861866453278,0.00120416097343,0.00252346469183,0.00114826462232,0.033063255250499995,0.0011331816203900007,-282.7632837712776,0.0305999685079,324.35591390049683,0.0300404783338,0.8515343924566023,0.0011556189379443179,-41.46714575163574,0.033063255250499995
1532706804.038834,76.76903088245001,32.06903011955,49.402091896,2.79485940693,-0.06969991757775393,9.816460704519745e-05,0.007775996245312831,9.374513152768252e-05,0.000495854930192,0.00120416173013,0.002075527222255,0.001148274634035,0.0330821759999,0.0011331763234900005,-282.76322678563696,0.03062022291125,324.356064040347,0.0300613231957,0.8515316197567394,0.001156456572327825,-41.46718062432787,0.0330821759999
1532706804.1203241,76.76887876114999,32.06887799825,49.40209189625,2.794859407,-0.06968606146938527,9.815040048518697e-05,0.007817285773374141,9.37696516601764e-05,0.00041376251283825003,0.00120416248683,0.00122202858814,0.00114828464575,0.0331010967493,0.00113317102659,-282.7632216967646,0.0306404773146,324.35609183707925,0.0300821680576,0.8515271426233069,0.0011572942067113322,-41.46733274756559,0.0331010967493
1532706804.199264,76.76880829685,32.06880753395,49.402091896749994,2.794859407005,-0.0696854909920259,9.815040048518697e-05,0.00783197342265916,9.37696516601764e-05,0.00044130756202204495,0.00120416248683,0.002177088436965,0.00114828464575,0.0331010967493,0.00113317102659,-282.76322132785276,0.0306404773146,324.3561474422572,0.0300821680576,0.8515253847529916,0.0011572942067113322,-41.4674032148197,0.0331010967493
1532706804.281601,76.7687054011,32.0687046382,49.40209189870001,2.79485940713,-0.0696807397596958,9.815040048518697e-05,0.007809321725832109,9.37696516601764e-05,0.0004970739835465,0.00120416248683,0.0029466149278400003,0.00114828464575,0.0331010967493,0.00113317102659,-282.7632122394532,0.0306404773146,324.3563643124493,0.0300821680576,0.8515189648351003,0.0011572942067113322,-41.46750612053361,0.0331010967493
1532706804.358588,76.7686178665,32.0686171036,49.4020918997,2.79485940692,-0.06967623850816923,9.815040048518697e-05,0.007787238292545174,9.37696516601764e-05,0.0005618657056845,0.00120416248683,0.00268169166493,0.00114828464575,0.0331010967493,0.00113317102659,-282.7632274718963,0.0306404773146,324.3564755269239,0.0300821680576,0.8515290807381375,0.0011572942067113322,-41.46759366153998,0.0331010967493
1532706804.439835,76.76850770364999,32.06850694075,49.4020919007,2.79485940703,-0.06967636835525505,9.815040048518697e-05,0.007790226290002491,9.37696516601764e-05,0.001184496561165,0.00120416248683,0.001987358355245,0.00114828464575,0.0331010967493,0.00113317102659,-282.76321947737205,0.0306404773146,324.3565867390008,0.0300821680576,0.8515290415589865,0.0011572942067113322,-41.46770382970997,0.0331010967493
1532706804.5208519,76.76842965039998,32.0684288875,49.402091901649996,2.7948594082050002,-0.06966042414762294,9.815040048518697e-05,0.00781432838949805,9.37696516601764e-05,0.002013336422655,0.00120416248683,0.0016958279352249999,0.00114828464575,0.0331010967493,0.00113317102659,-282.7631341854176,0.0306404773146,324.3566923871257,0.0300821680576,0.8515224993336571,0.0011572942067113322,-41.46778188452815,0.0331010967493
1532706804.600174,76.76837037125,32.06836960835,49.402091902049996,2.79485940925,-0.069679493063768,9.815040048518697e-05,0.007856888504609902,9.37696516601764e-05,0.0011515165771275,0.00120416248683,0.00152339642127,0.00114828464575,0.0331010967493,0.00113317102659,-282.7630583329699,0.0306404773146,324.3567368672251,0.0300821680576,0.8515170432249758,0.0011572942067113322,-41.46784116268121,0.0331010967493
1532706804.679388,76.76826061305,32.06825985015,49.402091902600006,2.79485940959,-0.06967563308443131,9.815040048518697e-05,0.00784229558252898,9.37696516601764e-05,0.000643013466941,0.00120416248683,0.0021648775214,0.00114828464575,0.0331010967493,0.00113317102659,-282.763033647333,0.0306404773146,324.35679803053836,0.0300821680576,0.8515129636225689,0.0011572942067113322,-41.46795092258911,0.0331010967493
1532706804.760712,76.76815092145,32.06815015855,49.40209190355,2.794859409175,-0.069666615445272,9.815040048518697e-05,0.007830866232434347,9.37696516601764e-05,0.00023244663603490002,0.00120416248683,0.00172791789794,0.00114828464575,0.0331010967493,0.00113317102659,-282.7630637582628,0.0306404773146,324.35690368381256,0.0300821680576,0.8515051120119648,0.0011572942067113322,-41.46806062114486,0.0331010967493
1532706804.8403358,76.7680953135,32.068094550599994,49.40209190375,2.7948594093050003,-0.06965664572027909,9.815040048518697e-05,0.007787979912274605,9.37696516601764e-05,0.0002189135905786,0.00120416248683,0.001038688348598,0.00114828464575,0.0331010967493,0.00113317102659,-282.763054319058,0.0306404773146,324.35692592381446,0.0300821680576,0.8515122950523824,0.0011572942067113322,-41.46811623008665,0.0331010967493
1532706804.922451,76.7679622713,32.0679615084,49.402091903599995,2.79485940945,-0.06965027984589706,9.815040048518697e-05,0.007816931492567205,9.37696516601764e-05,0.0005777163551985,0.00120416248683,0.00042590579035000004,0.00114828464575,0.0331010967493,0.00113317102659,-282.76304378974885,0.0306404773146,324.356909234049,0.0300821680576,0.8515084033573588,0.0011572942067113322,-41.46824927140152,0.0331010967493
1532706804.997625,76.76788377944999,32.06788301655,49.4020919031,2.79485940996,-0.06966260768873302,9.815040048518697e-05,0.007834893707354159,9.37696516601764e-05,0.0008587429412725,0.00120416248683,-4.330743207999998e-05,0.00114828464575,0.0331010967493,0.00113317102659,-282.7630067726759,0.0306404773146,324.3568536183552,0.0300821680576,0.8515010785682808,0.0011572942067113322,-41.46832775779056,0.0331010967493
1532706805.081076,76.76782266185,32.06782189895,49.40209190270001,2.7948594105450004,-0.06964944704302038,9.815379770591866e-05,0.00785869469360636,9.384448804719195e-05,-7.416691504000001e-06,0.0012041345471500002,0.0002933663884995,0.00114827021025,0.0331389047205,0.0011331407586099998,-282.7629643121639,0.0306806210428,324.35680912758716,0.0301238168031,0.8515028408612604,0.001158987680679652,-41.46838887140455,0.0331389047205
1532706805.16041,76.76778870070001,32.067787937800006,49.4020919031,2.79485940979,-0.06964786940910446,9.815379770591866e-05,0.007840614004892395,9.384448804719195e-05,-0.0006886579518895,0.0012041345471500002,0.000595030668149,0.00114827021025,0.0331389047205,0.0011331407586099998,-282.76301910729796,0.0306806210428,324.35685361446684,0.0301238168031,0.8515096824323732,0.001158987680679652,-41.468422836795696,0.0331389047205
1532706805.239614,76.76774871345,32.06774795055,49.40209190349999,2.79485940921,-0.06964865113832397,9.815379770591866e-05,0.007807456117214713,9.384448804719195e-05,-0.00023346315424849998,0.0012041345471500002,0.000774530219908,0.00114827021025,0.0331389047205,0.0011331407586099998,-282.76306120039226,0.0306806210428,324.35689810152223,0.0301238168031,0.8515094145540035,0.001158987680679652,-41.46846282870004,0.0331389047205
1532706805.319741,76.7676804573,32.0676796944,49.4020919039,2.7948594087550003,-0.06964293288860672,9.815379770591866e-05,0.007806931049412937,9.384448804719195e-05,3.420641570649999e-05,0.0012041345471500002,-0.000115350107565,0.00114827021025,0.0331389047205,0.0011331407586099998,-282.76309421959365,0.0306806210428,324.35694258777824,0.0301238168031,0.8515235141544779,0.001158987680679652,-41.46853108789003,0.0331389047205
1532706805.399049,76.76766492235,32.067664159450004,49.40209190355,2.794859408275,-0.06965229440300723,9.815379770591866e-05,0.007811039335939456,9.384448804719195e-05,-0.00018453797297050004,0.0012041345471500002,-0.000821053307541,0.00114827021025,0.0331389047205,0.0011331407586099998,-282.76312905995405,0.0306806210428,324.3569036622674,0.0301238168031,0.8515199882647575,0.001158987680679652,-41.46854662336642,0.0331389047205
1532706805.480212,76.76757134030001,32.067570577400005,49.40209190285,2.79485940729,-0.06963781886218995,9.815379770591866e-05,0.007840329408712036,9.384448804719195e-05,-0.0002299294912505,0.0012041345471500002,-0.0014705423023649998,0.00114827021025,0.0331389047205,0.0011331407586099998,-282.76320055246185,0.0306806210428,324.3568258092463,0.0301238168031,0.8515085001018319,0.001158987680679652,-41.468640204004956,0.0331389047205
1532706805.561241,76.7675427133,32.0675419504,49.402091902150005,2.7948594066,-0.06963379218043501,9.815379770591866e-05,0.007830450652234509,9.384448804719195e-05,-0.00018275653689800003,0.0012041345471500002,-0.001158117080041,0.00114827021025,0.0331389047205,0.0011331407586099998,-282.763250636322,0.0306806210428,324.3567479572356,0.0301238168031,0.851521146535935,0.001158987680679652,-41.46866883007834,0.0331389047205
1532706805.6381052,76.7675390043,32.0675382414,49.40209190189999,2.79485940549,-0.0696390399872116,9.815379770591866e-05,0.007826876529572414,9.384448804719195e-05,-0.000589083282761,0.0012041345471500002,-0.0005522312684080001,0.00114827021025,0.0331389047205,0.0011331407586099998,-282.7633312028587,0.0306806210428,324.3567201557032,0.0301238168031,0.8515237401135295,0.001158987680679652,-41.4686725405636,0.0331389047205
1532706805.7214859,76.76752941910001,32.0675286562,49.402091901350005,2.794859403385,-0.06963452747359897,9.815379770591866e-05,0.007788896692453641,9.384448804719195e-05,-0.0011235915169385,0.0012041345471500002,-0.0013463500043115,0.00114827021025,0.0331389047205,0.0011331407586099998,-282.76348398928656,0.0306806210428,324.35665899485986,0.0301238168031,0.8515169046161626,0.001158987680679652,-41.46868213002121,0.0331389047205
1532706805.798973,76.76750714745,32.06750638455,49.402091900900004,2.794859402025,-0.06963459355158991,9.815379770591866e-05,0.0077888440371703775,9.384448804719195e-05,-0.0010883967659319998,0.0012041345471500002,-0.000763246335864,0.00114827021025,0.0331389047205,0.0011331407586099998,-282.7635827014729,0.0306806210428,324.3566089502231,0.0301238168031,0.851523076900631,0.001158987680679652,-41.46870440357981,0.0331389047205
1532706805.8802161,76.76751711029999,32.0675163474,49.40209190035,2.79485939994,-0.06963185231704638,9.815379770591866e-05,0.007805418677014196,9.384448804719195e-05,-0.00143571865703,0.0012041345471500002,-0.0004732252933115,0.00114827021025,0.0331389047205,0.0011331407586099998,-282.7637340371557,0.0306806210428,324.35654778828547,0.0301238168031,0.8515310797213257,0.001158987680679652,-41.46869444352605,0.0331389047205
1532706805.961387,76.76759438024999,32.06759361735,49.4020919004,2.7948593975050002,-0.06964019931300428,9.815379770591866e-05,0.007809845651097723,9.384448804719195e-05,-0.0022502353082550003,0.0012041345471500002,0.00026630067021359997,0.00114827021025,0.0331389047205,0.0011331407586099998,-282.7639107758213,0.0306806210428,324.3565533622968,0.0301238168031,0.8515255895918139,0.001158987680679652,-41.468617180823514,0.0331389047205
1532706806.041044,76.76762998145,32.067629218549996,49.40209190045,2.7948593951900005,-0.06964536133545189,9.822166085016845e-05,0.007800034735350052,9.387646093464665e-05,-0.00251530842591,0.00120415724814,7.980947404555001e-05,0.00114824762568,0.0331766456366,0.0011332125868599998,-282.7640788029005,0.0307211410254,324.3565589341442,0.0301653891802,0.8515275251209392,0.001160678293829926,-41.468581587466076,0.0331766456366
1532706806.119158,76.76761795665,32.067617193749996,49.402091900600006,2.7948593943,-0.06964101193978753,9.822166085016845e-05,0.007784434265776269,9.387646093464665e-05,-0.0019088713790099995,0.00120415724814,0.00029104214910649997,0.00114824762568,0.0331766456366,0.0011332125868599998,-282.76414339890704,0.0307211410254,324.35657561966326,0.0301653891802,0.8515337492748477,0.001160678293829926,-41.46859361679652,0.0331766456366
1532706806.200468,76.7676815623,32.0676807994,49.402091900950005,2.794859393555,-0.06965133102480608,9.822166085016845e-05,0.00778246885409225,9.387646093464665e-05,-0.00138404808428,0.00120415724814,0.0003422896114575,0.00114824762568,0.0331766456366,0.0011332125868599998,-282.7641974728285,0.0307211410254,324.35661455187653,0.0301653891802,0.8515340926352166,0.001160678293829926,-41.46853001599807,0.0331766456366
1532706806.277761,76.76768378164999,32.06768301875,49.40209190115,2.794859393655,-0.06964646323415258,9.822166085016845e-05,0.0077843339381596655,9.387646093464665e-05,-0.0010110749232639998,0.00120415724814,0.00033014462243850004,0.00114824762568,0.0331766456366,0.0011332125868599998,-282.7641902136107,0.0307211410254,324.3566367945534,0.0301653891802,0.851536208802429,0.001160678293829926,-41.468527797211806,0.0331766456366
1532706806.360809,76.76768228315,32.06768152025,49.402091901750005,2.794859393745,-0.0696586742060766,9.822166085016845e-05,0.007809841677864408,9.387646093464665e-05,-0.0011008148965690001,0.00120415724814,0.000456354774617,0.00114824762568,0.0331766456366,0.0011332125868599998,-282.76418367779297,0.0307211410254,324.356703525797,0.0301653891802,0.8515332199714636,0.001160678293829926,-41.468529298760785,0.0331766456366
1532706806.440174,76.76771642825001,32.06771566535001,49.4020919023,2.7948593935950004,-0.06965882975365927,9.822166085016845e-05,0.007807139764044303,9.387646093464665e-05,-0.0007897121146424998,0.00120415724814,0.0007705580226505,0.00114824762568,0.0331766456366,0.0011332125868599998,-282.76419456332053,0.0307211410254,324.3567646976393,0.0301653891802,0.851531573214917,0.001160678293829926,-41.46849515697899,0.0331766456366
1532706806.51913,76.7677451511,32.0677443882,49.40209190275,2.7948593932000003,-0.06964994332215721,9.822166085016845e-05,0.0078004212856717025,9.387646093464665e-05,-0.001058686955037,0.00120415724814,0.0006060977624615001,0.00114824762568,0.0331766456366,0.0011332125868599998,-282.76422323164286,0.0307211410254,324.3568147490656,0.0301653891802,0.8515328885884165,0.001160678293829926,-41.46846643785506,0.0331766456366
1532706806.598559,76.76779167025,32.06779090735,49.4020919033,2.7948593930900003,-0.06967150913992774,9.822166085016845e-05,0.007791288644961569,9.387646093464665e-05,-0.0007588886256865,0.00120415724814,0.000535839627689,0.00114824762568,0.0331766456366,0.0011332125868599998,-282.76423121449045,0.0307211410254,324.3568759210607,0.0301653891802,0.8515242581551767,0.001160678293829926,-41.46841992210571,0.0331766456366
1532706806.67976,76.7678171987,32.0678164358,49.40209190375,2.794859393275,-0.06966579475253687,9.822166085016845e-05,0.007807052664452634,9.387646093464665e-05,-0.000168021664201,0.00120415724814,0.0003988045046165,0.00114824762568,0.0331766456366,0.0011332125868599998,-282.7642177855095,0.0307211410254,324.3569259696443,0.0301653891802,0.8515236918063065,0.001160678293829926,-41.4683943958789,0.0331766456366
1532706806.759022,76.76785477245,32.067854009550004,49.402091903999995,2.794859393455,-0.06967099020214118,9.822166085016845e-05,0.007809358803519471,9.387646093464665e-05,-0.000766849562507,0.00120415724814,4.070456203100002e-05,0.00114824762568,0.0331766456366,0.0011332125868599998,-282.7642047210953,0.0307211410254,324.35695377545164,0.0301653891802,0.8515239873062568,0.001160678293829926,-41.46835682342663,0.0331766456366
1532706806.840873,76.76788772265,32.06788695975,49.4020919046,2.7948593937,-0.06967916979100414,9.822166085016845e-05,0.007817817894749557,9.387646093464665e-05,-0.0006553635227485,0.00120415724814,0.0007779011366295,0.00114824762568,0.0331766456366,0.0011332125868599998,-282.76418693668427,0.0307211410254,324.357020506868,0.0301653891802,0.8515188282395243,0.001160678293829926,-41.46832387562347,0.0331766456366
1532706806.919112,76.76790127429999,32.0679005114,49.4020919051,2.794859393805,-0.06968477265011049,9.822166085016845e-05,0.007821550163484136,9.387646093464665e-05,-0.0008934240203319998,0.00120415724814,0.0008881920360590001,0.00114824762568,0.0331766456366,0.0011332125868599998,-282.76417931339324,0.0307211410254,324.35707611711143,0.0301653891802,0.8515196604133843,0.001160678293829926,-41.46831032588791,0.0331766456366
1532706807.000276,76.76798266214999,32.06798189925,49.4020919059,2.794859394215,-0.06968865934590017,9.822166085016845e-05,0.007812893726138925,9.387646093464665e-05,-0.0007402738811130001,0.00120415724814,0.0007374279426245,0.00114824762568,0.0331766456366,0.0011332125868599998,-282.7641495540156,0.0307211410254,324.3571650942279,0.0301653891802,0.8515147590357892,0.001160678293829926,-41.468228942399136,0.0331766456366
1532706807.07925,76.76800534405,32.06800458115,49.40209190625,2.79485939404,-0.06968733170509231,9.82737244792062e-05,0.007826466230250198,9.388815615191562e-05,-0.0007157717012080001,0.0012041637674000002,0.0009199366721225,0.00114828813821,0.0332143642008,0.00113320280798,-282.76416225476186,0.0307615417987,324.35720402200093,0.030206931754900006,0.8515101088206727,0.001162376059025315,-41.46820626259897,0.0332143642008
1532706807.160727,76.76799440335,32.067993640450005,49.4020919066,2.794859393895,-0.06968394142021181,9.82737244792062e-05,0.007833464219245332,9.388815615191562e-05,-0.00045996177174549997,0.0012041637674000002,0.0007508000622795,0.00114828813821,0.0332143642008,0.00113320280798,-282.7641727765538,0.0307615417987,324.3572429481794,0.030206931754900006,0.8515132574182052,0.001162376059025315,-41.46821720603346,0.0332143642008
1532706807.239987,76.76799483965,32.06799407675,49.40209190695,2.794859393965,-0.06968597302290556,9.82737244792062e-05,0.007838903228220308,9.388815615191562e-05,-0.00027789362976145005,0.0012041637674000002,0.001192658139415,0.00114828813821,0.0332143642008,0.00113320280798,-282.764167693866,0.0307615417987,324.3572818742647,0.030206931754900006,0.8515122471500757,0.001162376059025315,-41.4682167713013,0.0332143642008
1532706807.3214688,76.76803704070001,32.068036277800005,49.402091907750005,2.794859393865,-0.06968259327902834,9.82737244792062e-05,0.007834427240674987,9.388815615191562e-05,-0.00048581355893800003,0.0012041637674000002,0.0015634796768650002,0.00114828813821,0.0332143642008,0.00113320280798,-282.7641749492832,0.0307615417987,324.35737085151226,0.030206931754900006,0.8515059377368333,0.001162376059025315,-41.46817457522801,0.0332143642008
1532706807.39939,76.76804953945,32.06804877655,49.40209190835,2.794859393405,-0.06968293886050342,9.82737244792062e-05,0.007829060303387227,9.388815615191562e-05,-0.001005493330551,0.0012041637674000002,0.0016745884570649999,0.00114828813821,0.0332143642008,0.00113320280798,-282.76420833381917,0.0307615417987,324.3574375849563,0.030206931754900006,0.8515048717717566,0.001162376059025315,-41.468162080525445,0.0332143642008
1532706807.478897,76.76804628869999,32.0680455258,49.4020919092,2.7948593932300003,-0.06967996380524719,9.82737244792062e-05,0.007826741967915943,9.388815615191562e-05,-0.000143633548527955,0.0012041637674000002,0.0013906285308850001,0.00114828813821,0.0332143642008,0.00113320280798,-282.7642210304897,0.0307615417987,324.3575321208601,0.030206931754900006,0.851507988868714,0.001162376059025315,-41.46816533700292,0.0332143642008
1532706807.558448,76.7680502613,32.0680494984,49.402091910100005,2.7948593937,-0.0696704753889167,9.82737244792062e-05,0.007836574929790063,9.388815615191562e-05,0.0006039306909975,0.0012041637674000002,0.0015157525776399998,0.00114828813821,0.0332143642008,0.00113320280798,-282.7641869122992,0.0307615417987,324.3576322158053,0.030206931754900006,0.8515092606761774,0.001162376059025315,-41.46816136751278,0.0332143642008
1532706807.638174,76.76807402624998,32.06807326335,49.40209191105001,2.79485939449,-0.06967521871717422,9.82737244792062e-05,0.00783943945599766,9.388815615191562e-05,0.0008384802429565001,0.0012041637674000002,0.00164883139558,0.00114828813821,0.0332143642008,0.00113320280798,-282.76412956862566,0.0307615417987,324.35773787054956,0.030206931754900006,0.8515033089096966,0.001162376059025315,-41.468137606027,0.0332143642008
1532706807.719768,76.7680828152,32.0680820523,49.402091911999996,2.7948593954,-0.06966477779421122,9.82737244792062e-05,0.007848602785565071,9.388815615191562e-05,0.00104671537453,0.0012041637674000002,0.0013668282041299998,0.00114828813821,0.0332143642008,0.00113320280798,-282.76406351455734,0.0307615417987,324.3578435243195,0.030206931754900006,0.8515039538847768,0.001162376059025315,-41.468128819456524,0.0332143642008
1532706807.800649,76.76809347559998,32.0680927127,49.402091913250004,2.794859396395,-0.06966452108961406,9.82737244792062e-05,0.007844346726548641,9.388815615191562e-05,0.0010478238037409998,0.0012041637674000002,0.001563598408275,0.00114828813821,0.0332143642008,0.00113320280798,-282.7639912893981,0.0307615417987,324.3579825437897,0.030206931754900006,0.8515050183759231,0.001162376059025315,-41.46811816306348,0.0332143642008
1532706807.878145,76.76810563865001,32.068104875749995,49.402091914050004,2.794859397315,-0.06966511384889386,9.82737244792062e-05,0.007835786078667273,9.388815615191562e-05,0.0015059474808199998,0.0012041637674000002,0.0014654823468249999,0.00114828813821,0.0332143642008,0.00113320280798,-282.76392451055654,0.0307615417987,324.3580715157567,0.030206931754900006,0.8515072348201549,0.001162376059025315,-41.46810600105455,0.0332143642008
1532706807.961391,76.76811460959999,32.0681138467,49.40209191505,2.794859399295,-0.06966037420563725,9.82737244792062e-05,0.007840925300971295,9.388815615191562e-05,0.00144067770917,0.0012041637674000002,0.00104211996493,0.00114828813821,0.0332143642008,0.00113320280798,-282.7637807941545,0.0307615417987,324.3581827274156,0.030206931754900006,0.8515084757274363,0.001162376059025315,-41.46809703014226,0.0332143642008
1532706808.039636,76.7681035404,32.0681027775,49.4020919155,2.794859400635,-0.06965817575958992,9.828095373271353e-05,0.007846995068159305,9.391546801970586e-05,0.0014808155253099998,0.0012041502632200002,0.000880990640054,0.001148292969445,0.0332332216203,0.0011331798741599998,-282.7636835321,0.030781674198800003,324.3582327693923,0.030227668583350003,0.851505253035441,0.0011632186348207794,-41.46810809739668,0.0332332216203
1532706808.1175618,76.76812514334999,32.06812438045,49.402091916,2.79485940149,-0.06965491646097163,9.828818298622088e-05,0.007850778969937805,9.394277988749608e-05,0.001100894260278,0.00120413675904,0.00153627446483,0.00114829780068,0.0332520790398,0.0011331569403399998,-282.7636214731729,0.030801806598900007,324.3582883763674,0.0302484054118,0.851505511899185,0.001164061210616244,-41.46808649458126,0.0332520790398
1532706808.199549,76.76816344119999,32.0681626783,49.4020919167,2.79485940198,-0.06965841588809707,9.828818298622088e-05,0.00784376004102336,9.394277988749608e-05,0.000761012547613,0.00120413675904,0.0016087782297050002,0.00114829780068,0.0332520790398,0.0011331569403399998,-282.76358590600194,0.030801806598900007,324.3583662295344,0.0302484054118,0.851504439486862,0.001164061210616244,-41.46804819886127,0.0332520790398
1532706808.281108,76.76817223565,32.068171472749995,49.4020919176,2.79485940214,-0.06965028468368795,9.828818298622088e-05,0.007829737594189968,9.394277988749608e-05,0.0004957302550960001,0.00120413675904,0.0015414534955800001,0.00114829780068,0.0332520790398,0.0011331569403399998,-282.7635742881761,0.030801806598900007,324.3584663256063,0.0302484054118,0.8515028799644897,0.001164061210616244,-41.46803940912402,0.0332520790398
1532706808.3581939,76.76821041244999,32.06820964955,49.4020919182,2.794859402205,-0.06965447309428363,9.828818298622088e-05,0.007826932345594593,9.394277988749608e-05,0.0003487503005012,0.00120413675904,0.0016173405191799999,0.00114829780068,0.0332520790398,0.0011331569403399998,-282.7635695686363,0.030801806598900007,324.35853305815067,0.0302484054118,0.8515027314544236,0.001164061210616244,-41.46800123567853,0.0332520790398
1532706808.44025,76.7682593758,32.0682586129,49.402091919049994,2.79485940218,-0.0696478592955323,9.828818298622088e-05,0.007831755936875637,9.394277988749608e-05,0.00046397921944549996,0.00120413675904,0.001572316652895,0.00114829780068,0.0332520790398,0.0011331569403399998,-282.7635713804469,0.030801806598900007,324.3586275955815,0.0302484054118,0.8515018512159412,0.001164061210616244,-41.46795227766361,0.0332520790398
1532706808.518702,76.76827909885,32.06827833595,49.402091919600004,2.794859402055,-0.0696418145204556,9.828818298622088e-05,0.007835280951522725,9.394277988749608e-05,0.000383438969544,0.00120413675904,0.00137965356527,0.00114829780068,0.0332520790398,0.0011331569403399998,-282.76358045083117,0.030801806598900007,324.35868876731274,0.0302484054118,0.851502249865723,0.001164061210616244,-41.467932557106806,0.0332520790398
1532706808.598224,76.76831431079998,32.068313547900004,49.402091920450005,2.79485940182,-0.06963062657449437,9.828818298622088e-05,0.007842655667978125,9.394277988749608e-05,0.0004786605350935,0.00120413675904,0.00189014691089,0.00114829780068,0.0332520790398,0.0011331569403399998,-282.76359750415355,0.030801806598900007,324.3587833051231,0.0302484054118,0.8515024784942558,0.001164061210616244,-41.46789735100528,0.0332520790398
1532706808.679445,76.76837190604999,32.06837114315,49.4020919214,2.794859401455,-0.06963282082180314,9.828818298622088e-05,0.007845905974756087,9.394277988749608e-05,0.0005453049283685001,0.00120413675904,0.001471316193495,0.00114829780068,0.0332520790398,0.0011331569403399998,-282.7636239933967,0.030801806598900007,324.3588889666315,0.0302484054118,0.8515078040296197,0.001164061210616244,-41.467839762191446,0.0332520790398
1532706808.761111,76.76842108834998,32.06842032545,49.40209192215,2.79485940101,-0.06962065024910256,9.828818298622088e-05,0.007831417869575311,9.394277988749608e-05,0.00029644523351930003,0.00120413675904,0.0010253886421590001,0.00114829780068,0.0332520790398,0.0011331569403399998,-282.76365628998724,0.030801806598900007,324.35897238460916,0.0302484054118,0.8515052857830538,0.001164061210616244,-41.46779058584087,0.0332520790398
1532706808.8382561,76.76841479675,32.068414033850004,49.40209192255,2.7948594004450005,-0.06961483892019091,9.828818298622088e-05,0.007841887640570627,9.394277988749608e-05,0.00030203744585500006,0.00120413675904,0.001098601929875,0.00114829780068,0.0332520790398,0.0011331569403399998,-282.7636972958412,0.030801806598900007,324.3590168738266,0.0302484054118,0.8515053792166373,0.001164061210616244,-41.46779688078698,0.0332520790398
1532706808.919703,76.7684454531,32.068444690199996,49.40209192345,2.79485939993,-0.06960363000785115,9.828818298622088e-05,0.007808207342145516,9.394277988749608e-05,0.0009378035798154999,0.00120413675904,0.00216911669555,0.00114829780068,0.0332520790398,0.0011331569403399998,-282.76373467143003,0.030801806598900007,324.3591169729389,0.0302484054118,0.8515094637574532,0.001164061210616244,-41.46776623168515,0.0332520790398
1532706809.0005322,76.76847332059998,32.0684725577,49.4020919249,2.79485939935,-0.0696225201164106,9.828818298622088e-05,0.007820883253271467,9.394277988749608e-05,0.0005496295432455001,0.00120413675904,0.00193116678785,0.00114829780068,0.0332520790398,0.0011331569403399998,-282.7637767615198,0.030801806598900007,324.35927824318253,0.0302484054118,0.8515100798988218,0.001164061210616244,-41.467738374815795,0.0332520790398
1532706809.08025,76.76845776565,32.06845700275,49.40209192545,2.794859399595,-0.06962058825858544,9.835373797075761e-05,0.007833128599751826,9.399898845097788e-05,0.000785085049711,0.00120412919205,0.001340898855825,0.0011482745176199995,0.03328974545,0.00113317521755,-282.76375897525577,0.0308421775699,324.35933941115036,0.0302898120135,0.8515114469829361,0.0011657519538040186,-41.467753931565554,0.03328974545
1532706809.159693,76.7684359219,32.068435159,49.402091925700006,2.794859399745,-0.06961047447210894,9.835373797075761e-05,0.007853642672096924,9.399898845097788e-05,0.0004359895985129999,0.00120412919205,0.0016813765969600001,0.0011482745176199995,0.03328974545,0.00113317521755,-282.7637480856348,0.0308421775699,324.35936721414237,0.0302898120135,0.851514527332859,0.0011657519538040186,-41.46777577641508,0.03328974545
1532706809.239542,76.76845888745001,32.06845812455,49.40209192665,2.7948593994850004,-0.06960560329080429,9.835373797075761e-05,0.007846286306408526,9.399898845097788e-05,-0.0005866513362594999,0.00120412919205,0.0026453332000099996,0.0011482745176199995,0.03328974545,0.00113317521755,-282.76376695233546,0.0308421775699,324.35947287328787,0.0302898120135,0.8515044313702085,0.0011657519538040186,-41.467752816615246,0.03328974545
1532706809.320671,76.76841226124999,32.068411498349995,49.402091928100006,2.7948593990150004,-0.06960045166091972,9.835373797075761e-05,0.00780770797601867,9.399898845097788e-05,-8.888082895979998e-05,0.00120412919205,0.002482638442375,0.0011482745176199995,0.03328974545,0.00113317521755,-282.7638010551585,0.0308421775699,324.35963413921974,0.0302898120135,0.8515153942701871,0.0011657519538040186,-41.46779945271109,0.03328974545
1532706809.3998392,76.7683769734,32.0683762105,49.40209192895,2.7948593993650004,-0.06958791772079179,9.835373797075761e-05,0.007797433255663995,9.399898845097788e-05,0.0006861569809134999,0.00120412919205,0.00277660029951,0.0011482745176199995,0.03328974545,0.00113317521755,-282.7637756452527,0.0308421775699,324.3597286714445,0.0302898120135,0.8515282603915011,0.0011657519538040186,-41.46783474462238,0.03328974545
1532706809.481386,76.76770178785,32.06770102495,49.40209193785,2.7948594106250004,-0.06919321980172714,9.835373797075761e-05,0.007752685553568162,9.399898845097788e-05,0.0162259472641,0.00120412919205,0.020113569265950003,0.0011482745176199995,0.03328974545,0.00113317521755,-282.76295829852245,0.0308421775699,324.36071843537604,0.0302898120135,0.8515380203730347,0.0011657519538040186,-41.46850994380604,0.03328974545
1532706809.5609438,76.76657293365,32.06657217075,49.40209195935,2.7948594399499997,-0.06862192705149017,9.835373797075761e-05,0.007725806898707584,9.399898845097788e-05,0.03424338225555,0.00120412919205,0.039201318824899994,0.0011482745176199995,0.03328974545,0.00113317521755,-282.76082967755553,0.0308421775699,324.3631094569223,0.0302898120135,0.8515907536367354,0.0011657519538040186,-41.46963882531398,0.03328974545
1532706809.64084,76.76548017884998,32.06547941595,49.40209199675,2.7948594894200003,-0.06821362676630671,9.835373797075761e-05,0.007726330724236358,9.399898845097788e-05,0.0530078053825,0.00120412919205,0.06361276277035,0.0011482745176199995,0.03328974545,0.00113317521755,-282.7572388160195,0.0308421775699,324.36726877269587,0.0302898120135,0.8516499191281348,0.0011657519538040186,-41.470731633525475,0.03328974545
1532706809.7217882,76.76476400529998,32.064763242400005,49.4020920517,2.79485956046,-0.06798282519318245,9.835373797075761e-05,0.007750853310183183,9.399898845097788e-05,0.0744948556818,0.00120412919205,0.0882081572457,0.0011482745176199995,0.03328974545,0.00113317521755,-282.75208229106215,0.0308421775699,324.37337990332117,0.0302898120135,0.8516351847880634,0.0011657519538040186,-41.471447890807596,0.03328974545
1532706809.8005788,76.76438564104998,32.064384878149994,49.402092124549995,2.7948596561750003,-0.06785362485952945,9.835373797075761e-05,0.007687298497526022,9.399898845097788e-05,0.09701206906365001,0.00120412919205,0.113092004375,0.0011482745176199995,0.03328974545,0.00113317521755,-282.745134733963,0.0308421775699,324.3814817619084,0.0302898120135,0.8516314881414377,0.0011657519538040186,-41.471826359462554,0.03328974545
1532706809.8801382,76.76416170735,32.06416094445,49.40209221555,2.79485977744,-0.06780115375588883,9.835373797075761e-05,0.00769095446755174,9.399898845097788e-05,0.12054629053650001,0.00120412919205,0.1386152402665,0.0011482745176199995,0.03328974545,0.00113317521755,-282.7363326264851,0.0308421775699,324.39160214251154,0.0302898120135,0.8517021130493173,0.0011657519538040186,-41.4720504182787,0.03328974545
1532706809.961221,76.76370443399998,32.0637036711,49.4020923262,2.7948599245600003,-0.06766744218472065,9.835373797075761e-05,0.00771200913929636,9.399898845097788e-05,0.1437702979055,0.00120412919205,0.1672263820275,0.0011482745176199995,0.03328974545,0.00113317521755,-282.72565380559075,0.0308421775699,324.40390784777225,0.0302898120135,0.8517681900349552,0.0011657519538040186,-41.47250784591043,0.03328974545
1532706810.043055,76.76319345085,32.06319268795,49.4020924564,2.794860096305,-0.06754652747409318,0.00010634411524654748,0.007714826071090841,0.000102424400990566,0.16835494741749998,0.00154028524412,0.196833055855,0.0014319233596349996,0.032300986349550004,0.0013924959348550002,-282.71318755492837,0.02983560878785,324.418387772633,0.029122162610299998,0.8517566603393019,0.0011659655398430606,-41.47301901438506,0.032300986349550004
1532706810.121988,76.76314122644999,32.06314046355,49.40209259824999,2.794860288245,-0.06740499735801982,0.00011433449252233735,0.00776206151462612,0.00011084981353015413,0.1969176273275,0.00187644129619,0.227150283402,0.00171557220165,0.0313122272491,0.0016518166521600002,-282.6992554777124,0.0288290400058,324.434163335123,0.0279545132071,0.8517842371322775,0.0011661791258821025,-41.47307142674201,0.0313122272491
1532706810.201242,76.7630132157,32.063012452799995,49.40209276265,2.7948605129900006,-0.0672505689268126,0.00011433449252233735,0.007814410341127646,0.00011084981353015413,0.226049528048,0.00187644129619,0.2596177289975,0.00171557220165,0.0313122272491,0.0016518166521600002,-282.68294223727986,0.0288290400058,324.4524467401996,0.0279545132071,0.851903019040087,0.0011661791258821025,-41.47319964611661,0.0313122272491
1532706810.284775,76.76277532844998,32.06277456555,49.40209295265,2.794860770115,-0.06708066175751093,0.00011433449252233735,0.007836770365825581,0.00011084981353015413,0.2566748072925,0.00187644129619,0.297929145978,0.00171557220165,0.0313122272491,0.0016518166521600002,-282.6642786617203,0.0288290400058,324.4735771998311,0.0279545132071,0.8519840088963982,0.0011661791258821025,-41.47343778336466,0.0313122272491
1532706810.36075,76.76252276675,32.06252200385,49.40209316955,2.7948610604399997,-0.06698774349153666,0.00011433449252233735,0.00780963768699284,0.00011084981353015413,0.2871413019285,0.00187644129619,0.3349778474415,0.00171557220165,0.0313122272491,0.0016518166521600002,-282.6432052311633,0.0288290400058,324.49769930097875,0.0279545132071,0.8520150941441273,0.0011661791258821025,-41.47369064119795,0.0313122272491
1532706810.441952,76.76223563165,32.06223486875,49.40209341315,2.794861386745,-0.06694401507992778,0.00011433449252233735,0.007748785187495841,0.00011084981353015413,0.3205728176045,0.00187644129619,0.37149581744750004,0.00171557220165,0.0313122272491,0.0016518166521600002,-282.6195201697685,0.0288290400058,324.5247907884234,0.0279545132071,0.852078526481219,0.0011661791258821025,-41.47397810931669,0.0313122272491
1532706810.523057,76.76186152215,32.06186075925,49.40209368345,2.794861751095,-0.06690754289431902,0.00011433449252233735,0.0077723882148652695,0.00011084981353015413,0.35588536531900006,0.00187644129619,0.40972275225599997,0.00171557220165,0.0313122272491,0.0016518166521600002,-282.59307359493323,0.0288290400058,324.554851652318,0.0279545132071,0.8522538179614179,0.0011661791258821025,-41.47435257907448,0.0313122272491
1532706810.6046991,76.76130512489999,32.061304362,49.40209398275,2.794862154435,-0.06679433830752185,0.00011433449252233735,0.007797830362487454,0.00011084981353015413,0.3937789050925,0.00187644129619,0.4543862726895,0.00171557220165,0.0313122272491,0.0016518166521600002,-282.5637968998993,0.0288290400058,324.5881376852792,0.0279545132071,0.8524182528985121,0.0011661791258821025,-41.47490937757215,0.0313122272491
1532706810.681708,76.75997085399999,32.0599700911,49.40209432095,2.794862606565,-0.0662197463533713,0.00011433449252233735,0.007875068344876533,0.00011084981353015413,0.439211436484,0.00187644129619,0.5105687198340001,0.00171557220165,0.0313122272491,0.0016518166521600002,-282.5309787047198,0.0288290381432,324.62574987846574,0.0279545132071,0.8524863857781618,0.0011661791258821025,-41.47624411421697,0.0313122272491
1532706810.763785,76.7586176274,32.058616864499996,49.4020946964,2.794863107985,-0.06574407780951676,0.00011433449252233735,0.008107582161805373,0.00011084981353015413,0.488166053037,0.00187644129619,0.5642740233295,0.00171557220165,0.0313122272491,0.0016518166521600002,-282.4945827618292,0.0288290381432,324.6675047607573,0.0279545132071,0.852572212624254,0.0011661791258821025,-41.47759785851625,0.0313122272491
1532706810.8433108,76.75662415514999,32.05662339225,49.40209511785,2.79486367401,-0.06485939507187416,0.00011433449252233735,0.00851363754828786,0.00011084981353015413,0.549851580492,0.00187644129619,0.6315112798485001,0.00171557220165,0.0313122272491,0.0016518166521600002,-282.4534974107704,0.0288290381432,324.7143754008966,0.0279545132071,0.8527922311370857,0.0011661791258821025,-41.47959190335007,0.0313122272491
1532706810.924528,76.7546953582,32.054694595300006,49.40209558665,2.794864302155,-0.06402608527243075,0.00011433449252233735,0.009002821125589575,0.00011084981353015413,0.6048736502795,0.00187644129619,0.6997401045835,0.00171557220165,0.0313122272491,0.0016518166521600002,-282.40790303985773,0.0288290381432,324.7665119863633,0.02795451227575,0.852970919629275,0.0011661791258821025,-41.48152134250462,0.0313122272491
1532706811.0007699,76.75291627085,32.052915507950004,49.40209610615,2.7948649931549996,-0.06326941041272141,0.00011433449252233735,0.00939356897272181,0.00011084981353015413,0.6630237971815001,0.00187644129619,0.7708342171505,0.00171557220165,0.0313122272491,0.0016518166521600002,-282.3577462865511,0.0288290381432,324.82428710266606,0.027954511344400003,0.852974794274177,0.0011661791258821025,-41.48330115743792,0.0313122272491
1532706811.0838141,76.75118001265,32.05117924975,49.40209668365,2.79486575567,-0.06301568276596374,0.00012760773518389072,0.009549739655991018,0.00012596825101981627,0.724304540743,0.0029338595923000003,0.839969984959,0.00260119768791,0.0296265333891,0.00238091684878,-282.3023985503023,0.0271966829896,324.88851260365783,0.026113640517,0.8530261207283241,0.001166972222537496,-41.48503824507752,0.0296265333891
1532706811.162816,76.74916525135,32.04916448845,49.4020973129,2.794866584405,-0.06293264815607744,0.00012760773518389072,0.009285134520781394,0.00012596825101981627,0.777572817471,0.0029338595923000003,0.9070502885745,0.00260119768791,0.0296265333891,0.00238091684878,-282.2422441713301,0.0271966829896,324.9584933771599,0.026113640517,0.8532656315198104,0.001166972222537496,-41.487053917182294,0.0296265333891
1532706811.244653,76.7469588648,32.0469581019,49.40209799115,2.7948674701750003,-0.0630188245288742,0.00012760773518389072,0.008535071316646306,0.00012596825101981627,0.829941100239,0.0029338595923000003,0.9765317487215,0.00260119768791,0.0296265333891,0.00238091684878,-282.17794982897686,0.0271966829896,325.03392361482224,0.026113640517,0.8534553314801281,0.001166972222537496,-41.48926131182556,0.0296265333891
1532706811.323924,76.74448935355,32.044488590650005,49.40209871495,2.79486841167,-0.06291082722763167,0.00012760773518389072,0.007792819948431836,0.00012596825101981627,0.880376915224,0.0029338595923000003,1.034642470545,0.00260119768791,0.0296265333891,0.00238091684878,-282.1096106217168,0.0271966829896,325.1144196155906,0.026113640517,0.8535718906456853,0.001166972222537496,-41.491731912130206,0.0296265333891
1532706811.405564,76.7419191971,32.0419184342,49.402099478400004,2.79486941355,-0.06280542300621564,0.00012760773518389072,0.007515258097128829,0.00012596825101981627,0.934540992493,0.0029338595923000003,1.08677330608,0.00260119768791,0.029626535251700007,0.00238091684878,-282.0368883620446,0.0271966829896,325.199325182189,0.026113639585700003,0.8538281530191929,0.001166972222537496,-41.49430319103385,0.029626535251700007
1532706811.482683,76.73943669204999,32.03943592915,49.4021002767,2.794870469075,-0.06279697561603939,0.00012760773518389072,0.007610416840789086,0.00012596825101981627,0.9805273200744999,0.0029338595923000003,1.1369600067549999,0.00260119768791,0.029626535251700007,0.00238091684878,-281.96027228415284,0.0271966829896,325.28810650461605,0.026113638654400004,0.8541397897802554,0.001166972222537496,-41.49678684683879,0.029626535251700007
1532706811.564566,76.73674414535,32.03674338245,49.40210111275,2.7948715710350003,-0.06255277940021158,0.00012760773518389072,0.007745323919708136,0.00012596825101981627,1.0190466918549999,0.0029338595923000003,1.18607482656,0.00260119768791,0.029626535251700007,0.00238091684878,-281.88028566999833,0.0271966829896,325.3810861260647,0.026113638654400004,0.8542546742430543,0.001166972222537496,-41.49948061128917,0.029626535251700007
1532706811.644017,76.7347813369,32.034780573999996,49.40210198195,2.794872715405,-0.06279473778148875,0.00012760773518389072,0.007586917725514938,0.00012596825101981627,1.05897996805,0.0029338595923000003,1.23297315764,0.00260119768791,0.029626535251700007,0.00238091684878,-281.7972207274906,0.0271966829896,325.47775250642957,0.026113638654400004,0.85445934424405,0.001166972222537496,-41.50144469373511,0.029626535251700007
1532706811.725409,76.73264791815,32.032647155250004,49.40210288554999,2.794873903385,-0.0632530435541505,0.00012760773518389072,0.007421026702480167,0.00012596825101981627,1.0973614463099999,0.0029338595923000003,1.281259539725,0.0026011978043250002,0.029626535251700007,0.00238091684878,-281.71099031251777,0.0271966829896,325.57824461885946,0.026113638654400004,0.8549292361842383,0.001166972222537496,-41.503579444767794,0.029626535251700007
1532706811.804736,76.72913139965,32.02913063675,49.402103825400005,2.794875135475,-0.06337276901898048,0.00012760773518389072,0.007126550486005137,0.00012596825101981627,1.13908376423,0.0029338595923000003,1.333801620755,0.00260119792074,0.0296265371144,0.00238091684878,-281.62155807077903,0.0271966829896,325.6827681534958,0.026113638654400004,0.8553834554909859,0.001166972222537496,-41.50709736189626,0.0296265371144
1532706811.884178,76.72483917745001,32.024838414550004,49.402104800450005,2.7948764130450003,-0.0628545640301083,0.00012760773518389072,0.007297585308243005,0.00012596825101981627,1.181426724305,0.0029338595923000003,1.38023102631,0.00260119792074,0.0296265371144,0.00238091684878,-281.52882459907767,0.0271966829896,325.79120635519496,0.0261136367917,0.855658549391164,0.001166972222537496,-41.51139104148989,0.0296265371144
1532706811.960998,76.72101152264999,32.02101075975,49.402105812550005,2.7948777434500003,-0.062240944612870545,0.00012760773518389072,0.007032231771530433,0.00012596825101981627,1.231500096555,0.0029338595923000003,1.4333851479150002,0.00260119792074,0.0296265371144,0.00238091684878,-281.4322561063977,0.0271966829896,325.9037650159016,0.0261136367917,0.8558600318205526,0.001166972222537496,-41.51522019766034,0.0296265371144
1532706812.0446,76.71826914465001,32.018268381750005,49.40210686365,2.794879123005,-0.06198976332286446,0.0001335282174782724,0.007488415930845902,0.000132678054827481,1.2763111761850001,0.00359027122613,1.4914985991,0.0031702587148199997,0.02891159243885,0.00283633847721,-281.3321200714208,0.02657114341855,326.02066105464536,0.02539406437425,0.8562684259169215,0.0011674465330884815,-41.51796414712422,0.02891159243885
1532706812.123722,76.71594669390001,32.015945931000005,49.40210795620001,2.794880557715,-0.06225956738681774,0.00013944869977265407,0.007461298448158626,0.00013938785863514574,1.3247202367900002,0.00424668285996,1.5491050659,0.0037393195089,0.0281966477633,0.00329176033847,-281.22798060061393,0.0259456038475,326.14216690219257,0.0246744919568,0.8567698655752027,0.001167920843639467,-41.52028823057812,0.0281966477633
1532706812.2048721,76.71276623979999,32.0127654769,49.402109088900005,2.794882042105,-0.0621080883741617,0.00013944869977265407,0.006929896077360128,0.00013938785863514574,1.369737678185,0.00424668285996,1.608204823875,0.003739319625315,0.0281966477633,0.00329176033847,-281.12023502828947,0.0259456038475,326.26813792668804,0.0246744919568,0.8572463420876442,0.001167920843639467,-41.52347039304074,0.0281966477633
1532706812.286565,76.70843147155,32.00843070865,49.4021102631,2.794883573985,-0.060786626445666375,0.00013944869977265407,0.007541040978896981,0.00013938785863514574,1.41143615731,0.00424668285996,1.659304422595,0.00373931974173,0.0281966477633,0.00329176033847,-281.00904228734817,0.0259456038475,326.3987242679103,0.0246744919568,0.8577007225676943,0.001167920843639467,-41.52780695904006,0.0281966477633
1532706812.364206,76.7057088646,32.0057081017,49.402111469450006,2.794885155295,-0.06072165607818669,0.00013944869977265407,0.0075506751429172845,0.00013938785863514574,1.456617670375,0.00424668285996,1.702792271445,0.00373931974173,0.028196649625900006,0.00329176033847,-280.89426174556684,0.0259456038475,326.5328861720317,0.0246744900942,0.8581443382208193,0.001167920843639467,-41.53053139302368,0.028196649625900006
1532706812.445186,76.7035562256,32.0035554627,49.402112704900006,2.7948867759000002,-0.061513424706094826,0.00013944869977265407,0.007419212866332318,0.00013938785863514574,1.485629784505,0.00424668285996,1.7408924477249998,0.00373931974173,0.028196649625900006,0.00329176010564,-280.7766289865042,0.0259456038475,326.67028440704047,0.0246744900942,0.8587149653809321,0.001167920843639467,-41.53268590439461,0.028196649625900006
1532706812.524188,76.70195031955,32.001949556650004,49.40211396315,2.7948884289700002,-0.062269560319279174,0.00013944869977265407,0.009051598516738637,0.00013938785863514574,1.51735890406,0.00424668285996,1.76660134755,0.00373931974173,0.028196649625900006,0.00329176010564,-280.6566397756129,0.0259456038475,326.8102183231887,0.0246744900942,0.8595907000463194,0.001167920843639467,-41.534293715212044,0.028196649625900006
1532706812.604601,76.70003280085,32.00003203795,49.402115240200004,2.7948901132849997,-0.06230416145625381,0.00013944869977265407,0.009893952694640697,0.00013938785863514574,1.537331711785,0.00424668285996,1.7967481106449998,0.00373931974173,0.028196649625900006,0.00329176010564,-280.53438264757705,0.0259456038475,326.9522430106199,0.024674489162849998,0.8604113405472356,0.001167920843639467,-41.53621315101469,0.028196649625900006
1532706812.686002,76.69703412285,31.997033359950002,49.402116541699996,2.79489181218,-0.06146869197801641,0.00013944869977265407,0.010461706149231056,0.00013938785863514574,1.5484537651449999,0.00424668285996,1.8319838066549998,0.00373931974173,0.0281966514885,0.00329176010564,-280.4110671039892,0.0259456038475,327.09698687395485,0.0246744882315,0.8608337460717904,0.001167920843639467,-41.53921384452562,0.0281966514885
1532706812.765375,76.69334446495,31.993343702049998,49.40211786409999,2.7948935292600003,-0.06060959654728295,0.00013944869977265407,0.01116848735521419,0.00013938785863514574,1.570442985295,0.00424668285996,1.854124613935,0.00373931997456,0.0281966514885,0.00329176010564,-280.2864315269742,0.0259456038475,327.244055092586,0.0246744882315,0.8613588185868286,0.001167920843639467,-41.54290558556333,0.0281966514885
1532706812.843536,76.6897745016,31.989773738700002,49.40211920105,2.7948952726850003,-0.060086419278298324,0.00013944869977265407,0.011384620191092133,0.00013938785863514574,1.59372900396,0.00424668285996,1.87547394772,0.00373931997456,0.0281966514885,0.00329175987281,-280.15988372520326,0.025945601984900004,327.3927414470318,0.0246744882315,0.8622409099246112,0.001167920843639467,-41.54647763739574,0.0281966514885
1532706812.922851,76.6857415083,31.9857407454,49.402120558099995,2.79489703592,-0.05945027897896479,0.00013944869977265407,0.011926529448124067,0.00013938785863514574,1.608365686765,0.00424668285996,1.9082947580749998,0.00373931997456,0.0281966533512,0.00329175987281,-280.03189796050526,0.025945601984900004,327.5436631897423,0.024674486368900003,0.8629997541103347,0.001167920843639467,-41.55051277764985,0.0281966533512
1532706813.006502,76.68119809539999,31.981197332500003,49.4021219358,2.7948988162950004,-0.05873336474960832,0.00013944869977265407,0.012060506768700489,0.00013938785863514574,1.6287263691149998,0.00424668285996,1.9348958659800002,0.00373931997456,0.0281966533512,0.00329175987281,-279.90266802008523,0.025945601984900004,327.6968814993836,0.024674486368900003,0.8633486934618875,0.001167920843639467,-41.555058405374524,0.0281966533512
1532706813.085458,76.6765304403,31.976529677400002,49.4021233341,2.794900624055,-0.05788494501331867,0.00014881600805384174,0.01227498005838135,0.00015156096251918924,1.65222803768,0.00540493708104,1.960272009135,0.0048348410055,0.027218634262700003,0.00422453833744,-279.7714503261266,0.0253333281726,327.85239079581305,0.0240077972412,0.8637634995933683,0.0011670610379187205,-41.55972831417654,0.027218634262700003
1532706813.165208,76.67266591305,31.97266515015,49.402124750249996,2.7949024549950003,-0.05733384159587078,0.00014881600805384174,0.012405547407051278,0.00015156096251918924,1.67480584609,0.00540493708104,1.9877438349599998,0.0048348412383350005,0.0272186361253,0.00422453833744,-279.63855013948097,0.0253333281726,328.00988529271467,0.0240077972412,0.864378201375058,0.0011670610379187205,-41.563595129394216,0.0272186361253
1532706813.2461882,76.66883664715,31.96883588425,49.4021261867,2.7949043095349997,-0.056779683809296815,0.00014881600805384174,0.012275547754078592,0.00015156096251918924,1.6937638539400002,0.00540493708104,2.015092710765,0.00483484147117,0.0272186361253,0.00422453833744,-279.5039369287921,0.0253333281726,328.1696374352341,0.0240077953786,0.8650834252046907,0.0011670610379187205,-41.56742673133067,0.0272186361253
1532706813.327725,76.66652422165001,31.96652345875,49.40212764275,2.794906182855,-0.05677452798119724,0.00014881600805384174,0.011346960599454892,0.00015156096251918924,1.7087144739049998,0.00540493708104,2.04359042111,0.00483484147117,0.0272186361253,0.00422453833744,-279.3679606047941,0.0253333281726,328.3315694634904,0.0240077953786,0.8657816911466152,0.0011670610379187205,-41.56974155267928,0.0272186361253
1532706813.406767,76.66419035239998,31.964189589500002,49.40212911805,2.794908076585,-0.05627461468141467,0.00014881600805384174,0.011551867926535054,0.00015156096251918924,1.731974315665,0.00540493708104,2.0665684306900003,0.00483484147117,0.02721863705665,0.00422453833744,-279.23050279503514,0.0253333281726,328.49564236676866,0.0240077953786,0.8665273901267685,0.0011670610379187205,-41.57207786976417,0.02721863705665
1532706813.485992,76.6611585249,31.961157762,49.4021306097,2.7949099964900004,-0.05542087416726682,0.00014881600805384174,0.010919883294294698,0.00015156096251918924,1.75516287503,0.00540493708104,2.09125488739,0.00483484147117,0.027218637988,0.00422453787178,-279.091145055643,0.0253333281726,328.6615335557955,0.0240077935159,0.8672845735802215,0.0011670610379187205,-41.575112163696176,0.027218637988
1532706813.569195,76.6578843584,31.9578835955,49.402132118699996,2.794911941735,-0.05462012246138377,0.00014881600805384174,0.012713364028718374,0.00015156096251918924,1.7791341484600003,0.00540493708104,2.11335560648,0.00483484147117,0.027218637988,0.00422453787178,-278.94994800659117,0.0253333281726,328.82935427583845,0.0240077935159,0.8682612472929376,0.0011670610379187205,-41.57838882273803,0.027218637988
1532706813.644334,76.65496840695,31.95496764405,49.40213364665,2.7949139197250004,-0.053552424599867955,0.00014881600805384174,0.014344341779639155,0.00015156096251918924,1.811376407585,0.00540493708104,2.1474225061950003,0.00483484147117,0.027218637988,0.00422453787178,-278.8063742010588,0.0253333281726,328.99928247912635,0.0240077935159,0.8690586043153614,0.0011670610379187205,-41.58130728005946,0.027218637988
1532706813.725446,76.65283477955,31.95283401665,49.40213520695001,2.79491592916,-0.0529634939925569,0.00014881600805384174,0.014722064207650775,0.00015156096251918924,1.83577046251,0.00540493708104,2.197371441605,0.00483484147117,0.0272186398506,0.00422453787178,-278.6605179376374,0.0253333281726,329.17280851600816,0.0240077916533,0.8693284151667255,0.0011670610379187205,-41.58344350800604,0.0272186398506
1532706813.804593,76.6507504596,31.9507496967,49.40213680215,2.794917966825,-0.05219942122948358,0.00014881600805384174,0.015427303167097587,0.00015156096251918924,1.865778399845,0.00540493708104,2.24441861604,0.00483484147117,0.0272186398506,0.00422453787178,-278.51261251931663,0.0253333281726,329.35021596511524,0.0240077916533,0.8695411386788863,0.0011670610379187205,-41.58553054584969,0.0272186398506
1532706813.885381,76.64748099675,31.94748023385,49.40213842745,2.794920045785,-0.0498953664837085,0.00014881600805384174,0.0164584295370427,0.00015156096251918924,1.906637843725,0.00540493708104,2.2836927223,0.00483484193683,0.0272186398506,0.00422453787178,-278.3617096457036,0.0253333281726,329.53097086962885,0.0240077916533,0.8700426383878384,0.0011670610379187205,-41.58880277825027,0.0272186398506
1532706813.9665,76.6439335197,31.943932756800002,49.40214008385,2.7949221695100004,-0.04691267105601161,0.00014881600805384174,0.015533992163703422,0.00015156096251918924,1.9435752059,0.00540493708104,2.3319874638950004,0.00483484193683,0.0272186417133,0.00422453740612,-278.2075574942867,0.0253333281726,329.71518448046766,0.0240077897906,0.8705211188140229,0.0011670610379187205,-41.59235307251073,0.0272186417133
1532706814.046613,76.64092824275,31.94092747985,49.402141777699995,2.7949243259200003,-0.044593981134362734,0.0001523710452783286,0.015597461239801248,0.00015755865031522552,1.973617970785,0.005884482990949999,2.38375064201,0.00537432753481,0.026958214119100002,0.004707731772215,-278.05103284725084,0.0255073281005,329.90356312055684,0.02406564261765,0.8709279821780981,0.0011651513771674424,-41.595361286380935,0.026958214119100002
1532706814.127995,76.63831417349999,31.9383134106,49.40214350735,2.79492652779,-0.04346669794502673,0.0001559260825028155,0.01656496384332797,0.0001635563381112618,2.019899634145,0.006364028900859999,2.427453511145,0.00591381313279,0.026697786524900003,0.00519092567265,-277.89120848233836,0.0256813280284,330.0959232244196,0.0241234954447,0.8714184257533284,0.0011632417164161644,-41.59797836533278,0.026697786524900003
1532706814.208469,76.63547290994998,31.93547214705,49.4021452677,2.79492877544,-0.04209053680444924,0.0001559260825028155,0.016381096770586693,0.0001635563381112618,2.0565249097500002,0.006364028900859999,2.473771255025,0.00591381313279,0.026697786524900003,0.00519092567265,-277.72806117604307,0.0256813280284,330.2916975477307,0.0241234954447,0.8718308514171524,0.0011632417164161644,-41.60082268153677,0.026697786524900003
1532706814.2860038,76.63310112425,31.93310036135,49.402147063550004,2.794931059725,-0.04031646844603217,0.0001559260825028155,0.01755590661742944,0.0001635563381112618,2.089762245305,0.006364028900859999,2.5206758002000003,0.00591381313279,0.0266977883875,0.00519092567265,-277.5622546877772,0.025681326165800003,330.49142000848366,0.024123493582,0.8722435715284933,0.0011632417164161644,-41.60319761870963,0.0266977883875
1532706814.36745,76.6312643508,31.9312635879,49.4021488888,2.794933382675,-0.03795120626849156,0.0001559260825028155,0.018870102631523413,0.0001635563381112618,2.126982559505,0.006364028900859999,2.55920100141,0.00591381313279,0.0266977883875,0.00519092567265,-277.3936417155813,0.025681326165800003,330.6944121696066,0.024123493582,0.8725940557564881,0.0011632417164161644,-41.60503760134331,0.0266977883875
1532706814.4492118,76.63067873610001,31.930677973199998,49.402150742749996,2.794935747785,-0.03630731263251277,0.0001559260825028155,0.01987970959414083,0.0001635563381112618,2.16497359762,0.006364028900859999,2.601808862325,0.00591381359845,0.0266977883875,0.00519092567265,-277.22196862342093,0.025681326165800003,330.900596206127,0.024123493582,0.8729373353307803,0.0011632417164161644,-41.60562647031011,0.0266977883875
1532706814.528148,76.6303518144,31.930351051499997,49.40215262845,2.79493814945,-0.03600151895095548,0.0001559260825028155,0.021131941997988613,0.0001635563381112618,2.1932387480599997,0.006364028900859999,2.6457907364400004,0.00591381359845,0.0266977902502,0.00519092520699,-277.04764216957324,0.025681326165800003,331.11031130091635,0.0241234917194,0.8733245183421388,0.0011632417164161644,-41.60595672520354,0.0266977902502
1532706814.607448,76.6296768961,31.929676133199997,49.402154543,2.794940579775,-0.03535689665051943,0.0001559260825028155,0.021787357868304602,0.0001635563381112618,2.22033367505,0.006364028900859999,2.68253001491,0.00591381359845,0.0266977902502,0.00519092520699,-276.87123537356547,0.025681326165800003,331.3232349194576,0.0241234917194,0.8737321706727028,0.0011632417164161644,-41.60663506529245,0.0266977902502
1532706814.688749,76.63135946025,31.93135869735,49.40215648365,2.79494304128,-0.03538008569762362,0.0001559260825028155,0.02160971191974611,0.0001635563381112618,2.24652079926,0.006364028900859999,2.71962923389,0.00591381359845,0.0266977911815,0.00519092520699,-276.69256546386293,0.025681326165800003,331.5390613440551,0.0241234898567,0.8743784746171592,0.0011632417164161644,-41.60495598744964,0.0266977911815
1532706814.7658029,76.6347552272,31.9347544643,49.40215845195,2.7949455255849998,-0.035931214827960176,0.0001559260825028155,0.02049803330063496,0.0001635563381112618,2.263598395855,0.006364028900859999,2.759703378895,0.00591381359845,0.0266977921128,0.00519092520699,-276.5122406348903,0.025681326165800003,331.7579629594811,0.0241234898567,0.8749554341250136,0.0011632417164161644,-41.601563809207335,0.0266977921128
