time,lat_acc,lon_acc,pitch_rate,roll_rate,vert_acc,yaw_rate
1532706803.559165,0.35714883772425,-0.0067455704012,0.009617468465925,-0.0007067692006575,0.0542062285888,0.00041039105428400006
1532706803.640853,-0.236698769161,0.015851035969175,-0.0019987109640500003,0.0006658136315749999,0.031976116086,-0.0009182799949325
1532706803.7197962,-0.24841348092550003,0.027767051927875,-0.0049589504720625,0.001200221286845,0.014006559446750002,-0.000419350840278
1532706803.798836,0.045181470208975005,1.4132423597499992e-05,-0.0024076636670275,0.00175904901798,0.033139332602874993,0.0007845926835
1532706803.88025,0.11643114010375,-0.0364373282546,0.0023428151802400003,-0.000378531463459,0.09749603695025,-9.901545231750006e-06
1532706803.9591,-0.041602836196725,-0.014017746791174998,0.00013549370904975,-0.002263834655385,0.012512236199299996,-0.0008613442679225
1532706804.038834,-0.10264203408200001,0.03982431617637501,-0.002174749313365,-0.0011624874439300002,-0.09031903408975,-0.000112949986807925
1532706804.1203241,0.06994295014400001,0.0069087733931000005,0.001289249220195,0.00132773624362,-0.014948962035725002,0.0008496682867375001
1532706804.199264,0.08689778020875,-0.019751920079375,0.0019203006008200003,0.00028878045856474996,0.0646072511575,-0.00013192698157850002
1532706804.281601,-0.04722744504185,0.0022126951993450003,-0.0018009918943875,-9.370408575975e-05,0.009094344714900001,-0.0007122096367500001
1532706804.358588,-0.05483677944517501,0.017006930757975,-0.0013730691554175,0.000239959994181,-0.057852313764999996,0.00045106492462750004
1532706804.439835,0.0060152516143225,-0.013440634065044999,0.0013488363961549998,-4.487108476972501e-05,0.0031320992524074996,0.0007357834239650001
1532706804.5208519,0.039543770125325,-0.002927538298625,5.484821184749991e-06,-0.0008071351317575,0.0315451916144,-0.0007772890026224999
1532706804.600174,-0.001848460247865,0.018615454439225,-0.0011916136835824999,-0.00037039118319075,-0.04481747207055,-0.00010210352618500001
1532706804.679388,-0.023894764165225,0.0043401822759575,-0.00024910270681845,0.00038373103236475,-0.052498510749325,0.0004971592434735
1532706804.760712,-0.007136565955574999,-0.007823074078825001,0.0007882036506775001,0.00034575027571,0.01648146258285,6.3623412012500245e-06
1532706804.8403358,0.018664934430575004,0.0020631181737275,0.00017069806865775,2.0229039335249995e-05,0.019751165491550003,-0.00040579929031675006
1532706804.922451,0.010503199495824999,-0.0009459731280750013,-0.00033576690081875003,-0.000161518060618,-0.008587618708105002,0.00014194371541175
1532706804.997625,-0.010375664330732502,-0.00591888035478,-0.00038722696964275,-0.00024289703561725,-0.011902072223899999,0.00019617466715575
1532706805.081076,-0.0151500963989,0.018104871558175,8.1316538405825e-05,0.00018027534165475001,0.012069982843725,-0.00028106723680000004
1532706805.16041,0.006047896472819749,0.01740422630515,0.00044965605145375,0.0001395845553675,-0.007410112283425002,0.00014194472278075
1532706805.239614,0.004591267797265,-0.012893257560225,9.486005391915e-05,3.378940377825001e-05,-0.0006982347036749992,9.85598042475e-05
1532706805.319741,0.002871597352785,-0.005500565079515,-0.0004495192258625,0.00052206933998675,0.00995877589211,-5.8712717662425e-05
1532706805.399049,-0.008632981736425,-0.002076329485325,4.611068534900001e-05,-0.0009264899381300001,-0.0136263478896625,7.957771507375e-05
1532706805.480212,0.0005097510053124997,0.007884370721712499,7.8608151993675e-05,0.00018569925218775,0.0001734105758749993,5.7884254957250004e-05
1532706805.561241,0.006534518179810001,0.007929363206553502,-0.0001001434575795,-0.00011269341977592498,-0.0005804646324749987,-0.00012379300952425
1532706805.6381052,0.004830169327900001,0.0017487101853050006,-9.743469836825e-05,0.0003891492557855,0.007574556963250002,-5.6002940259149996e-05
1532706805.7214859,-0.0085691901209175,0.0031450795195199998,-0.00013805782856625,0.00013415990301728,0.015698502397025,-1.2616398793725001e-05
1532706805.798973,-0.002227635703635,-0.0058077997986725,0.00022215423083975003,-0.00028630250680555,-0.0009850598889749977,1.4499365984447498e-05
1532706805.8802161,-0.0007109572971875,0.00191574054122,2.44423183354e-05,-0.0002673151676825,0.0038729037686749974,-5.6002282460875e-05
1532706805.961387,0.004791622614586224,0.007041512351055,-0.00023014475261325,2.836551513500001e-05,0.0054239087087675,3.61914771496e-05
1532706806.041044,-0.00545565101245,-0.002618811816985,1.631538717325e-05,0.000280639080708,-0.0006017284259000012,-1.8038627006574996e-05
1532706806.119158,-0.0073821894926175,-0.0056769817896399994,2.4441207691475006e-05,1.4798230411250006e-05,4.0309446825001136e-05,-4.51542361546425e-05
1532706806.200468,0.0030471222506175005,-0.0026994414786025004,4.34001891335e-05,6.660082188999984e-06,-0.010263911814050009,9.584961854125e-05
1532706806.277761,0.0015475671552299996,-0.0005414722602749998,-1.347592769684125e-05,-0.00030258351330025,-0.00769921852535,7.41566692107e-05
1532706806.360809,0.00048104236756899997,-0.0018780413019525001,-0.00014889557971000002,-3.131693134875002e-05,-0.008490129205875,-7.1925891007625e-06
1532706806.440174,-0.0016550416811674995,0.004964492072244999,0.000140899877565,6.6339140996825e-05,-0.001884900169625,-3.1596993213145e-05
1532706806.51913,-0.0033422925632725,0.0007990691339650001,3.5273966452475e-05,7.447683760005e-05,0.0070206475601525,-7.192182423019998e-06
1532706806.598559,0.00040941811512750035,-0.0061528453282250015,-0.00011368541369199999,0.00020468454430925,-0.0010531414920749993,-1.768569055425e-06
1532706806.67976,0.00352316735107,-0.0013653470073974995,-5.350565566800005e-06,-0.00012897251235875,0.0021937753062999995,-3.7019456741047496e-05
1532706806.759022,0.0057392502895025,-0.0002303817858749996,5.48236765565e-06,5.0063180909174995e-05,0.0018155180439250011,5.2463207245975e-05
1532706806.840873,-0.00521688753225,0.004907632494782499,5.694051699285e-05,1.7511156049249994e-05,0.014495528461049997,8.50020981172e-05
1532706806.919112,0.0020674565779250018,0.0011390283612025002,0.0001625665699155,-6.903232269499991e-06,0.0157382268298475,-7.7694103954475e-05
1532706807.000276,0.010049919935415,-0.00209152947213,-0.000129936163736,0.00037015698165675,0.001321262218025,-0.00028648759362150003
1532706807.07925,-0.0063467045452499996,0.0004443094633350005,-0.000311436288788,0.00030769080002074995,0.0078198220786825,2.5595122520249983e-05
1532706807.160727,-0.004402439837664999,-0.007731050563417502,0.00024106836430900003,-0.0005440842634712499,-0.000671537056375,0.0001991366141025
1532706807.239987,-0.0013036441320625003,0.0003166507553249995,0.00027356716905575004,-0.00027281921478272496,0.004226104406800001,-0.00010998610022815001
1532706807.3214688,0.005282030089065,0.020507671237175,-4.33115818091e-05,-0.000134473980711,-0.009668506426225,-7.202354814625001e-05
1532706807.39939,0.011745319583975001,0.0012874569446275001,-5.143556311679999e-05,0.0007173012059499999,0.0015833918701250033,0.00013405858529875
1532706807.478897,-0.006069839874120001,-0.011422596542350002,-0.000306019836231,0.000185620484728995,0.0008771085437999995,5.271135616790001e-05
1532706807.558448,-0.032023849369825,-0.0010817065861905002,0.00011106861363099999,-8.835765225275e-05,-0.016897354718250004,-1.77903083804675e-05
1532706807.638174,0.0040394777552,0.0112519782817,0.00062836526359,-0.00017787680488900003,-0.01461019242985,-6.6598756079375e-05
1532706807.719768,0.0486392038644,0.00991423173485,0.0014760827587925,-0.00014261635643889753,-0.0342713763385,-0.00013980970482775
1532706807.800649,0.07442019720200001,-0.00020323907321150015,0.0019040038927974998,-4.225800004675001e-05,0.0009451968558749982,0.000220838956947
1532706807.878145,0.09018074912275001,-0.011845835215675001,0.0016304589898699998,0.00011235704429749999,0.003926720574222524,0.00017203405971825004
1532706807.961391,0.09175584399049999,-0.0024596552468149997,0.0010914947675800001,-0.0003542281476505,0.014485389649999998,-0.000215719873017
1532706808.039636,0.10829394768825001,0.0040106513554875,0.00044432529547850004,-0.00045746546783075005,0.0011820102027150002,-0.000147934389864325
1532706808.1175618,0.11946995223325,0.009034587945075001,0.0010457000886725,9.304507395444999e-05,0.011112882189374998,0.00028862875833675003
1532706808.199549,0.16147429862275,-0.0005821911719775001,0.0009129920583375,0.00013372982049775003,-0.01574622679861575,0.00025066912547175004
1532706808.281108,0.14817407243175001,0.0009415064235325,0.0012759066334425,0.00019882642788375,0.015344262131160002,-0.0002482604351995
1532706808.3581939,0.155425652169,0.007565180005025001,0.001154033158455,0.00035886884749624997,0.005657557091825003,-0.000215718454393
1532706808.44025,0.16016653809175,0.0023337617487674996,0.0012650744079299998,0.0003398728735775,0.03221435895335001,0.000172044698149
1532706808.518702,0.17819833544725,-0.00312912278248,0.0013409070978525,0.00024763752545775,0.009051180895325,0.000115104258196655
1532706808.598224,0.178083507867,-0.0032703936162674996,0.00186090377087,-0.000107727225706,0.004017697009555001,-0.000207571213559
1532706808.679445,0.20946127102775,0.0038198436229725007,0.0017606960339450002,0.0001499667817406,0.006077314463594998,-0.00038110875827175
1532706808.761111,0.20302690021375,0.00790423938866,0.0017796564272800001,0.0003181403264935,0.007938124835399999,7.173584003702501e-05
1532706808.8382561,0.27878499029775,-1.732440302499921e-06,0.0017661153030425,0.00038052512520974995,-0.015989160851875,0.000142241393669
1532706808.919703,0.32277337823975,-0.0038547430614924993,0.00457193221122,0.0006436379571395001,-0.015846909073425005,3.649878005399998e-05
1532706809.0005322,0.380819951929,0.006897715071825,0.004710057361275,0.000166184463939325,0.021533005429235,-0.000240067014791
1532706809.08025,0.38286108257,0.011107734429845,0.004414852761825001,0.000689704461445,0.035951372398824996,-6.853728947800002e-06
1532706809.159693,0.38854660939975,0.016059914399575,0.002814240707415,0.0006951181111674999,0.038022901157500004,0.0002073709961805
1532706809.239542,0.41573453887450007,0.006357609557975,0.001617169837095,0.0014112466645300002,0.0178586368564475,0.000163994806837
1532706809.320671,0.4482616488975,0.0013622683030979999,0.0020369680283425,0.001793723616485,-0.051003884954325,-0.0007389580997124999
1532706809.3998392,0.38011714072775005,0.0105724096062,0.0027357205163749997,0.0014492103805075,0.027948688866712493,-0.0008718183338275
1532706809.481386,0.39412266282850006,0.007649859825645,0.003599685816325,0.00191034709062,-0.003297437521125001,-0.00054641082066
1532706809.5609438,0.38918452493549993,-0.0075303093718425,0.0035590660390000003,-0.0008647112423475001,0.031789132324074994,-0.00048674240891975
1532706809.64084,0.38101721294100005,-0.020550170283675,0.0030769819356975,-0.0012878990812875005,0.003700367291549999,-0.0006955288428324999
1532706809.7217882,0.37991560062175006,0.016001253033174997,0.0031040619661475,-0.00019742570399542507,-0.0034735739014750003,-0.00032674571660900003
1532706809.8005788,0.3818039730955,0.02458393330375,0.00267885494656,0.00016876929827749996,0.0134478883224,-0.0001586195282375
1532706809.8801382,0.36585188127074997,0.027031571115625,0.0025488599413000003,0.001931981320915,0.008051822561549998,-0.0004840023463535
1532706809.961221,0.3364205526195,-0.001657964898975,0.0033613655098325003,0.0021299935566425,0.011814872987349997,-0.00113477281562
1532706810.043055,0.31370672847775,-0.007309157791764999,0.0050919946271225005,0.0034944407767525,0.009930746863800004,-0.00121338970967
1532706810.121988,0.30496263010325003,0.03380528662765,0.006299924985700001,0.005330881333000001,0.014919453935475,-0.00045953700241524995
1532706810.201242,0.3484616128015,0.011491355785325003,0.005953281030175001,0.0029328690594349997,0.015479618691224994,2.5868887368625e-05
1532706810.284775,0.31091268034850006,-0.0250864747555,0.0015956119426124998,0.0015168485508524998,0.050063245615875,-0.0013244914732625
1532706810.36075,0.32885996659475,0.01756829750595,0.00072084255342175,0.0035974541376275005,-0.04227422909757499,-0.0018423991023725
1532706810.441952,0.34494790803275,0.02979840349025,0.004523338067152501,0.0030983202920825004,-0.033752128111750004,-0.001188887888045
1532706810.523057,0.326098200813,-0.016020656684175003,0.0046479292831275,-0.0008648801795324999,0.0372592770193,-0.0015576494939674999
1532706810.6046991,0.3142477461065,0.007838100559849999,0.0031800308786750003,0.0031389808745075007,0.065472309647,-0.0024172143637200003
1532706810.681708,0.2714513320725,0.054059609075249995,0.0034454702235625005,0.0035051771645875,0.09631785759174999,-0.001009872942
1532706810.763785,0.31004814296325,0.00569775970096,0.0008536182451182499,-0.0014210074594324998,0.09320152596325,-0.0009176686605599999
1532706810.8433108,0.33224906411649996,-0.0399911491855,-0.0042217613588225,0.0014652638610474999,-0.00825129457765,-0.002067391831795
1532706810.924528,0.303507300227,0.013013392824700001,-0.0031573862901625,-0.0028017097913925,-0.05156181652120001,-0.0027453041119900002
1532706811.0007699,0.30481075431475,0.0032725694666250003,0.0020479893151449996,-0.0024707566354475003,0.0077459578125124995,-0.0018125235756925
1532706811.0838141,0.3165195887637501,0.02113167135705,0.00013320520068125,-0.0012202345516074999,0.025568093998425002,-0.0014735691112550005
1532706811.162816,0.33074110031275,0.0186121818535,-0.0015540831758275,-0.00461917966679,-0.068258216176775,-0.0018586261020225002
1532706811.244653,0.28438604102775,0.010945274571574999,0.0039166998267925,-0.0012717652636872502,-0.048921954748925,-0.0015440895903975
1532706811.323924,0.29900955809475005,0.015807565588725,0.0042823335716799995,0.0032095185067875006,0.09662188821499999,-0.00148441682746
1532706811.405564,0.30379872423075,-0.0033356855080775,0.0013546603476625,0.0019779656313875,0.039541895368715003,-0.0023466915000799997
1532706811.482683,0.28315234430825,0.01905208842305,-0.0011803041315925,0.0032420667985525,-0.01189123156165,-0.00246599437964
1532706811.564566,0.24741661324925002,0.035518453335124996,-0.00422984595607,0.0033153256536749996,0.12009846731175002,-0.00147625823804
1532706811.644017,0.2734159370885,-0.0027107656143750027,-0.00190608918253,0.005081283216324999,-0.026638729129050003,-0.00160370403746
1532706811.725409,0.28557078292399996,0.009100662219737501,0.003228904945465,0.0048751228640949995,-0.03870755261682499,-0.002135162782795
1532706811.804736,0.29348153291449997,0.0024881409058250016,0.0034022593165675,0.00138664178520725,-0.0912827253635,-0.0014952055641650002
1532706811.884178,0.2728448131325,-0.023360796364349998,0.0033535114101725,-1.0387923739250016e-05,0.014329822948924998,0.00046258050222
1532706811.960998,0.26692743539350006,-0.030259993623175,0.00132227740686,0.001495121395345,0.030311623956210006,0.00197566377311
1532706812.0446,0.30927453307125,-0.005408742487749999,0.004756409465805,-0.0058697502824125005,-0.034798927487875,0.0015499488516024999
1532706812.123722,0.2873616121185,-0.0253638045635,0.0035376252672199996,-0.0068598984966,0.060118061231875006,0.0014658845268200001
1532706812.2048721,0.32252802572225003,0.070578146871,-0.00199818473546,0.0030439901385875,0.052434860770535,0.0021736112559574998
1532706812.286565,0.30325458848575004,0.038963782409900005,-0.0014294376219750001,-0.0033415908211249998,-0.0255053535511,0.0016746736005074998
1532706812.364206,0.31492941290375,-0.06674992750625,0.00185842578731,-0.0064882723577499996,0.05565281032774999,0.0006523830896025001
1532706812.445186,0.25462684538225,0.03143651994595,0.0013113284511300002,0.0028188304495025,0.052269101988,0.0024122102757925
1532706812.524188,0.30286326678325004,0.08944266259799999,0.0013980125154149999,0.0056996553116925,-0.06775501331525,0.004456777612935
1532706812.604601,0.275976117888,-0.045448682266149995,0.0027494657476600003,0.002270841689045,0.026861684626350003,0.0027267893889675
1532706812.686002,0.2618994620885,-0.061078479599699996,-0.0038181883557924998,0.00572133387972,0.061128416509050015,0.00021585339300575002
1532706812.765375,0.2643829898405,0.02267285492193249,-0.0024531640294075,0.005295463347502501,0.022103124566225,0.0012300019426475
1532706812.843536,0.2923928307715,-0.034146632338275,-0.001185684772455,-0.007901591026,-0.01574372731494999,0.0022875174470999996
1532706812.922851,0.19266827945425002,-0.03116053698885,0.0001088654763769025,0.0018775215048725,0.1177481915275,0.0018834759940700003
1532706813.006502,0.30944902376225003,0.07302555208495,0.0002497036144765,-0.00247900369208875,-0.0489982881139,0.0014658949065625001
1532706813.085458,0.24805727147575002,0.00017585320207500008,-0.0028540686268475005,-0.0048905745420875,-0.06315028794217499,0.002444780269475
1532706813.165208,0.276712810866,-0.0020917778771250006,0.00034715371331725,0.00337217628146,-0.04834118902975,0.0037843108701249998
1532706813.2461882,0.21783495966925,-0.0778889419255,-0.0021038820478425,-0.0058183081553,0.07298555543275,0.0018726243986125
1532706813.327725,0.216183527727,-0.009875549532875002,0.0007560756816305,0.0018259588469000006,0.03580863376375,0.0022739277887575
1532706813.406767,0.20500273525650003,0.05649665354397499,0.00082379482471,0.0030764778898775,0.14919130506449996,0.003673133926995
1532706813.485992,0.22314364545999998,-0.023003516820342504,0.0010540013713799998,0.0019995416398525,-0.06635732782849998,0.0027511943135724998
1532706813.569195,0.21314298784475,-0.050140111737975,-0.0009826577674397498,-0.003146375557565,0.05059588171925,0.0007473178197125002
1532706813.644334,0.17721231996450004,-0.015109664923375,-0.0026049612714099998,-0.003555977774645,-0.058829530034975,0.0014875685931299999
1532706813.725446,0.17904809795425003,0.06163749691925001,0.00302832005828,0.00021189582204249996,0.08868102015735,0.003195876283125
1532706813.804593,0.22238727910599998,-0.008179558981275006,3.1286154959999935e-06,0.00020916681226000003,-0.029940046870137498,0.00206243315872
1532706813.885381,0.196296181234,-0.10391209560600001,0.0016524818665075002,-0.0029131060212075,-0.045556003346275,-0.0024903601989374998
1532706813.9665,0.18145892035,0.027687157675575003,0.0004364553728792499,0.0026912462806325003,-0.054808310211075004,-0.0033146874281875
1532706814.046613,0.206209866658,0.0825885340785,0.00419289941501,0.0018530201910650001,0.028797220119825,-0.00029935984411100003
1532706814.127995,0.16103121711225,-0.007203046260224999,0.0009077024549449999,-0.00370524453523,0.11503768169600001,5.587511143474998e-05
1532706814.208469,0.149569745171,-0.027736827688899998,-0.0004870823854090001,0.00660557959395,0.06980289085625001,-0.0015005942168124999
1532706814.2860038,0.19502927209525,0.0513195133933,0.0014412824594625,0.0067683422899475,-0.0451627053221,-0.0024496362830575
1532706814.36745,0.14270239964875,-0.008324701788875002,0.0035754531947650003,-0.0010142867487425002,-0.0587958542252825,-0.0028726339849775
1532706814.4492118,0.14997488697325,-0.01470743504542,0.0003417339961457,0.0044300186867625,0.0696824037267875,-0.0017093428231724998
1532706814.528148,0.13599118388149997,-0.006465820603384999,-0.0023151077565150002,-0.0035262072188824998,0.046873338744875,-0.0015981615779075
1532706814.607448,0.13467233670474998,-0.044889818137675,0.00061797493006325,-0.00753550715725,-0.036374523941425,-0.002905181234195
1532706814.688749,0.11766587106850002,0.06300580969155001,0.000404009408486975,0.00141898622595975,0.03431433502405,-0.003081442065675
1532706814.7658029,0.1120280717525,0.09860784278099999,-0.0027349179849275,-5.1501980907500645e-06,0.028247682278825,-0.0012022932077575001
1532706814.8460221,0.082207205815,-0.046218641773199995,-0.0005466064367039999,-0.0038381280708325,-0.0015219113372500013,-0.001950710557715
1532706814.92532,0.059429153396325,0.019951350856400003,-0.0027755394441000003,0.00701252027915,0.09163437585475,-0.001985959472415
1532706815.00639,0.037837798884635,0.024776398370875,-0.005194039072474999,0.0015383953615325002,0.006338921214099999,-0.0010070661910825001
1532706815.085386,0.1013163607494,-0.019538293593175,-0.0030409494371225,0.0012589769504025,-0.076348559525225,-0.0019723993799825
1532706815.1663551,0.08512713221799997,0.004288192481169999,-0.005722159331950001,0.004389419545455,-0.004347793000955,-0.00352073975888
1532706815.246721,0.06768312618465,0.018079833774025,-0.0039454936304699996,-0.006016338963575,-0.012341884404175,-0.004071213470040001
1532706815.327744,0.0050735447941499985,0.014890527100860002,-0.0046388451746525,-0.005959347052575,0.04458476582462499,-0.00265306324294
1532706815.409732,0.014521312341175001,0.08361228753424998,-0.0005872033972849999,0.0038361129393275,-0.0431553700205,-0.000291249670145
1532706815.488561,0.053022320630875,-0.0079300630164375,0.00208050015401,-0.003273791057495,0.026688169086000003,-0.0014952011680825
1532706815.5721061,-0.00304877761498025,-0.072103126506675,0.0008021590492649999,-0.0015593835155000004,0.018061458591608,-0.0044834219485425
1532706815.647347,0.0441298560284,0.062092002901475,0.0005069810586899998,0.002924659689005,0.0691645637111,-0.00387058144417
1532706815.728107,0.013419703245624998,0.025736169260187503,-0.004457366218327501,-0.0045812718460475,-0.04342714142993749,-0.0019941512756225
1532706815.8072991,0.052079993227224994,0.037175100892725,0.0007425959373694999,0.00028797950943299996,-0.11040553256225,-0.0020294134359475
1532706815.886364,-0.016852515067215,0.039836267663975,0.004907998165042501,0.0007599752210575,0.07843981260504998,-0.0028374649131275
1532706815.969243,0.039734776260275,-0.0561664749395,0.0037948828735075,-0.00275565235728,-0.014201998787550001,-0.00377025532755
1532706816.04853,-0.0117788152567,-0.012036973010049998,0.005140893951095,-0.0011687725560449998,-0.0139549465658,-0.0033580804792399995
1532706816.1280198,0.0006511710911999997,0.07738424560724999,0.002429878297185,0.0054121282660175,0.15150767978975002,-0.0008389426767249999
1532706816.207088,-0.010790695249574999,-0.0251845313090925,0.0013682219708075001,-0.0016543919659309503,0.08756479191925001,-0.002089002837395
1532706816.288173,-0.0420637008146,0.030843978489850255,0.0101025758232,0.018148119172425,-0.09444189304674999,-0.0029783879690575
1532706816.3655698,0.042547812954775006,0.09361184844400001,0.012542828551799999,-0.0005856578174449998,-0.039308089844625,-0.0026203859015325
1532706816.44649,0.007062371068150002,-0.06329455496295,0.002018321432095,0.006033236280597501,-0.07488743175725,0.0008261231461275
1532706816.526052,-0.051098059036665,0.0035596144300100003,0.0016094023890425,0.008480057305075,0.012500719394625,0.001273571405585
1532706816.6055882,0.02238666903305,-0.05380794610197499,0.0013602470466575,-0.0038707532318975,-0.044782034478749996,-0.0021213879709475
1532706816.689817,0.006375307283600001,-0.024378158918275,0.0046427139640550005,-0.0025605362204950003,0.016229514248875,-0.0038703954793150004
1532706816.7673051,-0.026391020841425,0.08194078730675,0.002148361780585,0.00111241155858,0.09429918744612499,-0.00104485993952
1532706816.848897,-0.02029017245872125,0.028907294081799997,-0.0025153734485675,-0.012993494932574998,0.077228075651825,0.00067430593387275
1532706816.929332,-0.026037221180849997,0.003125737014299997,-0.013256593517775,0.0006024549879600004,0.2524825231065,0.0019677120792925
1532706817.008418,-0.01781352335105,0.054451009227225,-0.020206110196124998,0.00472579531653,-0.22471688277725,0.0023201869024075
1532706817.087681,-0.04817313370402501,-0.12030071375625001,-0.004156668559777499,-0.0029212322568925,-0.19596413553300002,-0.0018177931166275
1532706817.169259,-0.008061588321324996,0.03431520712052499,0.006088884692800001,0.0050757499435275,-0.044912572136175,-0.0024631614857225
1532706817.248499,0.023749070495124997,0.108030337566,0.0006966647755777499,0.003651573371295,0.08064810597125,0.0009616755655899999
1532706817.327856,-0.0055954617385,-0.0147410842507625,-0.004037467494380001,-0.0018198985002500002,0.0431202951744,0.0019432875301975002
1532706817.40761,-0.0015623788633499988,-0.0476474904061,-0.008435764536525,0.00558302857115,0.059110788672700004,-9.11023487849999e-06
1532706817.491101,0.027516467357925005,-0.02464535352825,-0.0009878846659095,0.00041540258286749997,-0.15483142774000003,-0.00036434179891775
1532706817.568426,-0.020315197873475,-0.08782681515775001,0.007402450839925001,-0.0082000808357,-0.10860366428675,-0.0020130235569774998
1532706817.647711,0.026773146253024994,0.025968084166925,0.006836390996025001,-0.0025306115665425,-0.0021582068352249996,-0.0011751186897825
1532706817.729478,-0.024086736179699995,0.046281100214549994,0.0015985043315675,-0.005199906191132501,0.10192580226549999,-0.0002667127407485
1532706817.810481,0.01237521562459,0.03972429899495,-0.0035662666202,-2.4107368372499813e-05,0.07034506089920001,-0.00042400289484275
1532706817.889376,-0.01882137191905,0.08450104776275,0.0009160168112715,0.0082875527313,-0.026255508976175013,-0.0006056734251999999
1532706817.97053,0.008281803908624999,-0.020397454022149993,0.0024083177847425002,0.0026858597736875,-0.017301844165325,0.00069593387734725
1532706818.049865,0.03956475741265,-0.0728550751315,5.211213049550003e-05,0.007842650554175,-0.1335925676835,-0.0007737573023874999
1532706818.129363,-0.034370798684625,-0.023807215278775,0.0005288101374015,0.002889287395465,0.073302811617,-0.002183791747675
1532706818.209316,0.021094033427999998,0.0059886795049,-0.004289283823760001,-0.008468696404875,0.15220878024200002,-0.0014462327890925
1532706818.289391,0.029414146523935,0.011107968260025,-0.00537535226405,-0.0049204839738675,-0.041331054211925,8.852278759950003e-05
1532706818.3711529,0.021616725880350005,0.0401532761441,-0.0036339266710074996,-0.004421331089217499,-0.080735871659,0.0011026550116125
1532706818.4508731,-0.006379115714200002,0.03552336234605,-0.00021063518020125,-0.0011905237212839997,0.006562589797675,0.00056031302489
1532706818.530563,-0.018500287747657503,0.065241644274,0.0008998001135385,0.01215857284765,0.1068083256915,0.0009155575493225
1532706818.608222,0.05311093710035,-0.08912652275624999,-0.0020630682960625,-0.0020721487187625,-0.04886161562537501,-0.0010910468388225002
1532706818.691769,-0.0583276864594425,-0.04743245119975,-0.0026236901586525,0.0034725865244975,-0.03941995418205,-0.0020130175512099997
1532706818.770668,-0.015058521339915,0.070095865916,0.0017258789805725,0.00019567293565,0.00816338056786,0.00030002529793725
1532706818.849958,0.05194818864265001,-0.014935595125000001,0.00026337232000075,-0.005359905757000001,-0.033936305488175,0.0007365957388775
1532706818.928625,0.029404393763600004,-0.0271460205614,3.31533508546e-05,0.0042836722171125,-0.03994325227277498,-0.0010341160933225
1532706819.00884,-0.02443643381105,0.05408689152495,0.001796291738295,0.002989724954915,-0.0857742232645,-0.0013350943555949998
1532706819.0890481,0.017785623734674988,-0.0074464193518500015,0.005024630558670001,0.005648116915344999,0.048013364999124994,-0.0008957785673600001
1532706819.1686618,-0.037071267090382505,-0.034492047360950004,0.00065071321496225,0.0015194028278285002,0.1118860470515,-0.000478170525728
1532706819.250009,0.00988562346585,-0.006318704831300001,-0.0036663223940674996,-0.0013967223115750002,0.034239831772574995,-0.0009499921140425
1532706819.331474,0.0573086070367,-0.049404672225599994,-0.0035878164185425,-0.010413649477425,-0.16521682312424998,-0.0008578328764075
1532706819.410876,-0.00936300192344,0.054400968706225,-0.003528256379775,-0.00134785635297,0.098726879556925,2.8855746505000008e-05
1532706819.492467,0.018694366596525,0.05166122461097499,-0.002769939275815,-0.0048906050791625,-0.022895328390675006,0.000834201058595
1532706819.57413,0.029524545924025,-0.035053216677650004,1.690070227599997e-05,0.0030602697004375005,-0.0793987395933,0.0001400064077675
1532706819.653509,-0.032259949905599994,0.00817116008374005,0.00261690652124,0.0068037665989,-0.032851468648085,-0.0008958274117349999
1532706819.735287,-0.021471317508725003,0.0723920591005,0.0029446551889424997,0.0071021444751000005,0.23860044292125,-0.0007791908364400001
1532706819.8088849,0.0436350214878,-0.10154184761075,-0.000397394225371,-0.0004065583307025,-0.067392252037,-0.0021458557959000003
1532706819.89004,0.0008955521099500013,-0.0008742022655250006,-0.0014292518553749999,0.0009470794736549999,0.008859007426025002,-0.0031437430378275003
1532706819.970928,0.006321422097800001,0.030790518428149997,0.0032344728113225,-0.00627949701047,-0.0841773792185,-0.00352337372365
1532706820.052017,0.05990497901515002,-0.014855499885675,0.001270908371395,-0.010329545134275,-0.16222413621499998,-0.0032901919282074996
1532706820.135719,0.0032230164986249994,-0.0018986436687,0.003697539595015,-0.00081890081083025,0.061901057261075004,-0.0042148722465075
1532706820.213381,0.031561927991500004,0.089743674784,0.00300694046057,0.0039472789459275,0.04348258976897501,-0.005619493857024999
1532706820.294874,0.01890863285245,0.049636928871375004,0.0013224055769400001,0.0030982178490774996,0.08843743417074999,-0.007813203659699999
1532706820.374145,0.011206307978635,0.037912918509325,-0.00020233761884250006,0.00468243863117,0.17472404053649998,-0.007742687428025
1532706820.455277,0.052475326252499996,-0.029128627411125,-0.0009308455077425,-0.0015485659033500003,0.0051559620646750015,-0.0090741077055
1532706820.532834,0.04384146091195001,0.007583087367200002,0.000607501479989,-0.000569261282515,-0.10101403133925,-0.011012940801474998
1532706820.614904,0.054699949784575,0.0405110982156,0.0017423126607850003,-0.0024464094397750004,-0.06819557099275,-0.013518508082825
1532706820.69462,0.08716895636675001,0.015510277309775,0.0027092023640000002,-0.008677411638425,-0.08279723042915,-0.01759412552455
1532706820.777859,-0.008741508836900003,0.035772477696825,0.0050166924663125004,-0.011777972034350003,0.030882394830807493,-0.021208775445125
1532706820.855418,0.08330030864175,0.16035863674099998,0.00776022085625,-0.0096674777605,0.02395471455975,-0.021770101142
1532706820.935124,-0.01852953327976,0.183801030512,0.007405471109950002,0.0019482497444174999,0.152430057641,-0.0233292917084
1532706821.01583,0.04589072368565,0.12693976714599997,0.0024114205938775,0.0015766557641981255,0.068499369717107,-0.029332866563350005
1532706821.095446,-0.005871862030904999,0.045846635235700005,0.0033133927729625,0.0020188791161375,-0.042017351335224995,-0.03607945924925
1532706821.169365,0.019356546842700002,0.12671686177875002,0.006249322270625001,0.00075756337783125,-0.009409538466225002,-0.04090889333815
1532706821.2546911,-0.023775025653525,0.14644169601950002,0.0066475436342,-0.008674347211725,-0.0036301753050749994,-0.043791372086624994
1532706821.331464,0.012502038201075,0.15807168786800002,0.015411730496824998,-0.010589417454525,-0.11143042996174998,-0.048108326670525
1532706821.4127939,-0.03917135194635,0.25047334929125,0.0214811563828,-0.0126699974106,0.18557370819725003,-0.053246881806
1532706821.493991,-0.031430490794075006,0.21225991965375002,0.017792526595649998,-0.00407073174817,0.1253251420225,-0.057406536319
1532706821.573895,-0.009020731854925,0.3385256241055,0.016148733005,0.0011024387666825001,0.020588142755749994,-0.061189247757750004
1532706821.6492062,0.015011855346999989,0.26609683132675,0.007902093777774998,0.00576023347785,-0.08499114159000001,-0.06484451290375
1532706821.727236,0.035821138607167506,0.22261092023025,0.009730396572500001,-0.0016343871034525002,0.021665690388250003,-0.07017016777
1532706821.808247,0.021734987233250007,0.253847459371,0.012081404270775,0.005847346298375,0.03326760083485,-0.07246690738799999
1532706821.88979,0.022953561573060006,0.29356357277125,0.016504273580825,-0.0021684908639750004,0.108735599549,-0.075200210332
1532706821.969159,-0.04703520645975,0.30250896506999997,0.011578021351449998,-0.0029007562293154997,0.350587864686,-0.07618994094525
1532706822.049584,0.009658608078875,0.29793874232275,-0.00048190082372175,-0.006839378491307502,-0.02614700341575,-0.07947104295325
1532706822.1301038,-0.0146019464538375,0.25562119882725,-0.00071738879262625,-0.01582626753705,0.042229628494125,-0.0794765324765
1532706822.2107382,0.0036858607944225,0.37004907465075,0.003250465994225,-0.00039087812562050005,-0.03391969632089999,-0.07931384532249999
1532706822.290342,0.024487623092574996,0.34078353059350003,0.00160667388546,-0.0085531226938,-0.22006403731049998,-0.078229194592
1532706822.370322,0.0038679468415000057,0.29684918857825,0.005815573386024999,0.0029244657583900003,-0.03215709370417501,-0.07807463431174999
1532706822.4454448,-0.0271258819068,0.35638315152,0.0024899692783550004,0.006877064755224999,0.08111355759122499,-0.0784867783245
1532706822.522384,-0.034986118364800006,0.2482052888565,0.0049520344638775,0.0045742265428325,0.02324695859557501,-0.07929211436699998
1532706822.601681,0.011729596433425,0.30717177103375004,0.00655014110925,0.004200094615979999,0.1881652738815,-0.0810519479225
1532706822.679107,0.01727472766865,0.27242138890125,0.0030213522956274996,0.00142519750308425,-0.12542958573450003,-0.0817813664715
1532706822.760257,-0.005771006932750001,0.16326699959525004,-0.00038282604124849996,-0.026525943797625004,0.086908499991,-0.0906512256625
1532706822.839255,0.0252876253522075,0.29171371278,0.003538858859275,-0.03457696813734999,-0.09410831004830002,-0.0905021586665
1532706822.9184759,0.014263867220200004,0.4544409704035,0.006748268690475,-0.017861169786650002,-0.047778521050674996,-0.0847318400295
1532706822.999639,-0.056037213487325,0.493027212723,0.000641141251239,-0.0038499339155924996,0.12860865886324999,-0.0833136630755
1532706823.0769641,0.05923643784457501,0.29102709916925007,0.000600651430601,-0.015796320130950003,-0.19778279001250001,-0.088520072693
1532706823.156625,-0.09569069838825,0.27555122714425,0.006236794221825001,-0.0034777525204325002,0.17533899794274999,-0.09178765621225
1532706823.238293,0.0303116285372,0.4369215656345001,0.008826103363799999,-0.013197017261725001,0.09856172681200001,-0.09052402581525
1532706823.3177938,0.016343490656400003,0.27738109567149993,0.008853303807875,-0.0033280290765387494,-0.06032864223477501,-0.08868554634775
1532706823.397068,0.014624740161749986,0.3441104855022501,0.0089265906791,-0.008641907327449998,-0.11231022105650001,-0.091394477114
1532706823.476349,0.05310403669149999,0.25568596907275,0.0065948261089825,-0.022435620586050004,0.14727230013325,-0.09512303819875001
1532706823.555429,-0.003732011044999997,0.32550361861425003,-0.00333921492888,-0.018784036712375003,-0.037046770713249993,-0.09596914987025
1532706823.6371331,0.0039003893002500026,0.506595470323,-0.0017493174011275,-0.0025672984487275,-0.16423908002525,-0.094027646447
1532706823.715648,-0.0374796979004275,0.39742043030850005,-0.001673338546835,-0.008738321747999999,-0.031502724319999995,-0.0958688694545
1532706823.793417,-0.021297500204125,0.24101844482450002,-0.0072632003858499996,-0.009055355207375,0.23111636727475,-0.10015061775075
1532706823.874918,-0.03449500427605,0.39624671224075003,-0.014261352664174998,-0.00133738492679,0.18879728661775,-0.10055197197624999
1532706823.955942,-0.0159561588324875,0.5348525804400001,-0.015750786958924998,0.0012346441097975,-0.080901720729325,-0.092842764929
1532706824.036161,0.006900726911749991,0.32733532976150004,-0.010726727435825,-0.005180471267577499,-0.03688370904664999,-0.0880323062665
1532706824.113827,-0.0023539616244249995,0.092297135686,-0.010293317064,-0.00732860089555,-0.081000041821775,-0.09139477667325
1532706824.193124,0.0039776602617500045,0.33925742485224997,0.002105474690325,0.00032964013372749996,-0.22450763621724998,-0.09209168462025
1532706824.276614,-0.076080931977,0.38849348640775,0.013529243741949998,-0.017196676615600003,0.058378498330025,-0.08988441658425
1532706824.354406,0.018016271511749997,0.29059715071375003,0.014539490685250001,-0.00838835673515,-0.05881118099665,-0.08978411810425
1532706824.435611,-0.05939043703816,0.330944245636,0.0104797967178,-0.0043841817034725,0.099948093017,-0.0904240774975
1532706824.51528,-0.031546860800660007,0.466100195302,0.007763449572575,0.0046845869270025,-0.03161802811485,-0.0889489327945
1532706824.597166,-0.0011032588688999964,0.43747318116225,0.0042292299269925,0.005948982302675,-0.005364726832150002,-0.086879902144
1532706824.679226,-0.015740531584025004,0.20031716196825,0.000334773938966,0.006925830355375001,0.042266490156475,-0.087584913175
1532706824.7583349,-0.06593685870049999,0.31346205991349996,-0.0013605069826,0.004737046849377501,0.052677659792249996,-0.09069786647924999
1532706824.838353,-0.009672583238924996,0.39758079721100004,-0.008328911902750001,0.00143877167877,0.20577640241375,-0.0878207942225
1532706824.91976,-0.060765569689750006,0.37167789472525004,-0.012421093316825001,0.0017483797747624998,0.1173838352925,-0.08409227011300001
1532706824.998831,-0.019218706528499996,0.2211891411275,-0.011194167524175,-0.00570840898628,-0.08498139819432503,-0.0846563133405
1532706825.0785599,-0.1129382252455,0.32563979759725004,-0.0030664376422725,0.0017192478923625,-0.0100036086945,-0.085797938993
1532706825.1600971,0.015580410374177497,0.41371517904325006,-0.00532238995488,0.0039060708390975,-0.09438419601550001,-0.08196366081825
1532706825.239801,-0.082296107029,0.31452543618425,-0.0047427433868975,0.010875186319499998,-0.22788547533000003,-0.08218328483725
1532706825.317194,0.025172677402675005,0.25613187456575,-0.0025976727422625003,0.010959583739724998,-0.09086399407349999,-0.08542097132000001
1532706825.3962948,-0.061158595441375,0.36478453176225,-0.0024973343905475,0.022407438467225003,-0.06081522923735001,-0.0859849294605
1532706825.478077,0.03714802766455,0.34453492811475,-0.005817613916575,0.00745006501125,-0.028586076365724994,-0.08553744543275
1532706825.557608,4.474262432499834e-05,0.28449859668200006,-0.0055846302231,0.011090823270525,0.038082473316924985,-0.08338436830425
1532706825.6368392,0.018286112263485,0.30843142811,-0.010286168567675003,0.015198166819474997,0.137650481035,-0.08476725679475
1532706825.721116,0.02343113745692499,0.3334281145355,-0.01042692360965,0.0030675352802975,-0.032348871123635,-0.0855861438055
1532706825.798306,0.028301547384575,0.28561107324875,-0.009850022431225,0.0042695272909274995,0.18731134535325,-0.085545459727
1532706825.881,0.0314645493808,0.3156297743555,-0.0065593863961,0.002992315408145,-0.14876178666724998,-0.08599287707049999
1532706825.959556,0.010585134824325,0.378381828343,-0.009654965739175,0.0061609934464,0.013254910828150002,-0.08619352479100001
1532706826.037979,-0.011939724963974996,0.339233287477,-0.004839569972995,-0.00823753474635,-0.246067054659,-0.08628029851049998
1532706826.1194198,0.02671697092475,0.27232659099225,0.0031987122699875,0.0001368655566675002,-0.09580539780049999,-0.08487580920075
1532706826.199393,0.0526074547894,0.36470164756225,-0.0021745455963275004,0.011446345042425001,-0.025100818284575003,-0.08578689618175
1532706826.2788699,0.07083869146850001,0.38077961220875,-0.0019497241377625,0.008025994460575,-0.14339523321125,-0.08614751425475
1532706826.35814,0.058209298972425,0.3341626588015,-0.0021257445040275,-0.00199702065691,0.050534279379325,-0.08679286235775001
1532706826.43618,0.040537414012175005,0.2285966145655,-0.0068815723597999996,0.0050562891348150014,0.019544889429800004,-0.08340330338
1532706826.519491,0.036993662803975,0.29724442564,-0.011951529153124998,-0.0054549871227724984,0.20186133957975,-0.0839049381195
1532706826.598954,0.12519744138324998,0.25995845159675,-0.02027153630515,-0.00301318365511,-0.13681660686175,-0.08390768573
1532706826.680293,0.05655225108687499,0.29155837475725,-0.02746214315185,-0.01350802923145,0.25782588741475,-0.0806591098825
1532706826.755913,0.10610481548225001,0.188206223105,-0.034747603081249995,-0.0294501085808,-0.11099271319439999,-0.08066458589525
1532706826.8371,0.028878102776474998,0.288785016837,-0.024613220615025,-0.0047887095191,-0.0953796440495,-0.07647512981900001
1532706826.91222,0.0024197142864999972,0.39429049733175003,-0.02115477938475,-0.01006448851715,-0.05470225943674999,-0.07304489654325
1532706826.992529,-0.006958981291514999,0.26460388902974996,-0.0100615973778,0.0038546116868425,-0.06553232917579999,-0.07428684285324999
1532706827.0733109,0.07065718713300001,0.30686575549649997,-0.017731453331125,0.011672945676249998,-0.021843078980499975,-0.07833553660975
1532706827.150732,0.0384648674222375,0.3007634379405,-0.015797771238925,-0.0099874013047,-0.29345810078150003,-0.07350061337975
1532706827.227793,0.10730958623224998,0.141678343886,-0.009067757204374999,-0.017221785615075,-0.29760203653,-0.0678685245535
1532706827.3090198,0.07791496866474999,0.16758176564675,0.001188448142225,-0.0261218106772,-0.14501227911874998,-0.06579145332275
1532706827.3905,0.0480964342392525,0.07382955423032501,-0.006817512541925001,-0.03684205831675,-0.09360780946375,-0.06589191553500001
1532706827.469832,0.032780784994024995,0.33203148302675,-0.011394743026250001,-0.020614552658325,-0.00619925215725,-0.06485887470775
1532706827.549358,-0.09904259336832501,0.511086688545,-0.00912799610385,0.005961802516355001,0.180679361822,-0.057556381224
1532706827.6290839,-0.068433873087575,0.43483157261575,-0.0014228562387062502,0.0277258166897,0.19306003102525002,-0.048016675354050006
1532706827.710367,0.01397280451345,0.0466860674724,0.012441022220999999,0.017984748493925,-0.22738545919200004,-0.04676107799685
1532706827.790288,0.019301804402875003,-0.10682592954125,0.011428110070675,0.00470088576041,0.023793021304075,-0.046774616033325
1532706827.8711538,0.037349362016925,0.121342174908925,9.113217639000011e-05,-0.0021105084124724994,-0.15415240039307504,-0.04144617671315
1532706827.950335,-0.005453474060949998,-0.015345978075,-0.0028095749304925003,-0.034350519023725004,-0.036095607089675005,-0.033910513763
1532706828.032629,0.11278877649740252,-0.028629570393524997,0.0028667952716079997,-0.051879710777675,-0.4753113160467499,-0.032224013576
1532706828.109861,-0.0005742996067499839,0.3318193338715001,0.011213485466000001,-0.03539954779275,0.006911062104999997,-0.02378290141685
1532706828.19115,-0.0868783736231,0.33396080671575,0.0059078705585225,-0.0006722862976624999,0.3788193443265,-0.013511117552624997
1532706828.272064,-0.02090263604624998,0.12061468186975,-0.007178493331574999,0.010959555087474999,0.48514129614199997,-0.01002116361055
1532706828.3503811,-0.020289867294500025,-0.16498917371674998,-0.0137297669614,0.012703870847600001,-0.007681322999750009,-0.010183813598925
1532706828.4311712,-0.027890731218950006,0.014679595757000008,-0.010032890795175,0.030843394628125,-0.099126615041125,-0.006186701653815
1532706828.510307,-0.0005783019665000014,0.12423834065475,-0.006113885811375,0.020638476946275,-0.30289839438650007,0.006495966542225
1532706828.589473,-0.009250337228624997,-0.21483680620675,1.4498595425000479e-06,0.000806329066617,-0.2025942099995,0.01564523106055
1532706828.670614,0.052206171227400004,-0.311849694335,-0.0008381036022025001,-0.01017722238345,0.01928282703485,0.018956190736175
1532706828.748567,-0.02910986847974998,-0.1256967283835,-0.004407636768795,-0.011937788850325,0.13698328559825,0.026768516166
1532706828.833759,-0.0680485926806,0.017019693229275,-0.00028292932761625,-0.0024707728184150003,0.10522265626395,0.04067130637972499
1532706828.915123,-0.013335011913349994,-0.12376997647532498,9.627106828500004e-05,0.0042293024001225,0.07184585952175,0.049484279228975
1532706828.995961,-0.044451442114524994,-0.20266174759650002,0.0033327563104575,0.014857228146750001,-0.0406557432973,0.055374088601
1532706829.075083,-0.045075211629955,-0.166953000214,0.006542198751025,0.016489888148899998,-0.122247649531,0.06687224620549999
1532706829.156507,-0.020730329555525,-0.29918129300275,0.010008872807,0.0085905132929,-0.102367607363,0.08300693450225
1532706829.235733,-0.0645217203239,-0.47257651046225,0.013665114539049996,0.0047979330783625,0.0298715957099,0.093707346202
1532706829.314881,0.007560364004750006,-0.499068452535,0.009540568116225,-0.0035030076792399996,-0.16116325394685,0.0998574915615
1532706829.396242,0.007091194057812499,-0.43857920473225,0.005505344021624999,-0.013483051181075002,0.11276327307125,0.1057662594845
1532706829.475989,0.0032806789917500107,-0.34691089981125,-0.002998476480475,-0.007868391610775,0.21114882163725002,0.112615989687
1532706829.558335,0.005347116087824996,-0.40688278288125,-0.0027221771791525002,-0.0006098900669847501,-0.06544414100695,0.11569105059824998
1532706829.637689,0.00040581089225000255,-0.37078794848225005,0.0025508391191275005,-0.00072424312379,0.17110901216200003,0.11317730690925001
1532706829.719463,0.009909839744025001,-0.6104832648425,-0.0045446913979425,-0.0010474501661625001,0.1194927527305,0.10949479594550002
1532706829.800832,0.011092269529024992,-0.43770776301500003,-0.0017334770794250002,-0.00537179600695,-0.14776051226075004,0.10857824152775
1532706829.879932,-0.0405232365811775,-0.42475064223799996,-0.00397588634518,-0.0097312298337,0.017948283418637506,0.11063098174950001
1532706829.958991,0.0004149987156850006,-0.41328679454500006,-0.0007530777437575,-0.00627575686925,-0.10613337570860001,0.111018731328
1532706830.039967,0.05246879049415,-0.3837726241375,0.006689159673425,-0.0048574882512125,-0.11932770969772499,0.1103516281025
1532706830.121176,-0.008888398556589999,-0.41757067259775005,0.016184144273625002,0.00298677737258275,-0.02916598016405,0.11650235893149999
1532706830.202404,-0.051007964649025,-0.4174811652357501,0.0143913578095,0.0078715054974,0.19146947552350002,0.12429043756775
1532706830.277569,0.007402440659275013,-0.49089910426899996,0.0051536805532725,-0.005561282662162499,0.30356758924225,0.12905222340375
1532706830.357302,-0.06669316850250001,-0.61822198338,-0.00173061176809,-0.006524715817349999,0.088333553305275,0.12985486673250002
1532706830.4345,0.086003370822275,-0.554969800815,-0.0021260563829225,-0.011752205735124999,-0.12283584717424999,0.12780748813499998
1532706830.511363,-0.046340804525675,-0.45407457576450005,0.0075259171166500004,-0.006734530324525,-0.071544371656125,0.128385038136
1532706830.588227,-0.010059405815500008,-0.3851322938405,0.008354595547349998,0.0010607288195824999,0.018034404178250002,0.131875020277
1532706830.669533,0.127806922223,-0.5399416692249999,0.005762788176075,-0.0021866840612925,-0.0763393982684,0.13696490997150002
1532706830.74891,-0.08044982168602499,-0.581337337805,-0.0018689866051225003,0.00542141221275,0.14434519155425,0.13795198268
1532706830.829059,0.0016718825470000073,-0.5295547405200001,-0.0031662563335300006,0.004010405937022499,0.026144102221400005,0.13909363767125
1532706830.905915,-0.0330787368608,-0.5757016184200001,-0.001963905394735,-0.013754386752549998,0.00016325448750000027,0.13955190495699998
1532706830.9868028,0.0148067030155175,-0.59580429286,0.0018355553261825,-0.0123335376433,-0.08778447211675,0.14069891073325
1532706831.066983,0.04622992989372499,-0.4979489193007499,0.0044055086666350005,-0.011653005272049998,-0.008122066395400009,0.141900563738
1532706831.146755,-0.0022801373629999927,-0.509919089694,0.0037255871482675005,-0.0009961767350749997,0.13166793137675,0.14582710939099996
1532706831.2260962,0.09925303445625003,-0.44012819022474997,-0.002988137745365,0.014315280289349998,0.15319539491975,0.15204512625725
1532706831.309425,0.12273974450575002,-0.6038102520099999,-0.005260418048957501,0.005708031564425,-0.12322428005674999,0.1572218461465
1532706831.388411,0.04848748401899999,-0.7783369372725,0.0003995642371999999,-0.00068856077761,-0.132049915789425,0.1612270735225
1532706831.467825,0.04502734742785,-0.67482119698,0.0061434562617749995,-0.00917652160415,0.09330591133529999,0.16610275282499998
1532706831.548015,0.107507606704,-0.6767263083724999,0.0032454222192625,-0.01984801251685,0.025257058746450005,0.1689039217135
1532706831.627232,0.08391046046075,-0.653340127245,0.005966877051499999,-0.010995049121300001,0.011179762074524993,0.1670761787785
1532706831.706814,0.037268908449025,-0.6210626491300001,0.006313203183799999,-0.0195481511193,0.07518026275662501,0.16401188621275
1532706831.7839198,0.0282961290167,-0.5887870740425001,0.002775968178875,-0.00847634563075,0.0919921830787,0.165880218997
1532706831.863442,0.10517115414132501,-0.5401219950524999,0.0049124534607825,0.0031650901998525,-0.11582662975725,0.17060675381725002
1532706831.942808,0.11189970371225,-0.6900269994350001,0.007141016057524999,-0.0024910245306925,-0.0311151214846,0.16922107670174996
1532706832.0227141,-0.0018197813324500045,-0.7875358536849999,0.0064311593144250005,2.8310414889999992e-05,0.08968062897479999,0.16487690017549997
1532706832.101747,0.049436504055275,-0.6494144059399999,0.0018648464891874998,-0.0053129815166225005,0.034794892334050004,0.16499672250225
1532706832.1827528,-0.02653932337405001,-0.63704835094,0.0026146763030925,-0.0100358605714,-0.024760723598349993,0.16688406948375
1532706832.2618911,0.0749981688123,-0.6383262301574999,0.0033509180097475,-0.0061033127617499995,0.125918779279825,0.16795789427624996
1532706832.341275,0.10738861257249999,-0.626846787475,-0.003856001819965,-0.006337111167799999,0.029036078972999993,0.16577764097675002
1532706832.420793,0.06856104933285,-0.67449140906,-0.0020039829454400002,-0.0039885819830675,-0.03715946194375,0.16111072550625
1532706832.499961,0.014239397263624998,-0.654925336375,0.0027594492417475002,-0.0011679643643575,-0.049906376800275015,0.158637617776
1532706832.581207,-0.0006358599684999997,-0.6308326786025,0.0052017589874875005,-0.0044696023950575,0.08953902992235002,0.15895489261475
1532706832.662646,0.012325882578999997,-0.6168302451325001,0.00177278035345,-0.005243101630775001,0.058167097542350006,0.16117037998274997
1532706832.743989,0.055766931541424966,-0.67146699362,-0.0014720552084699998,-0.008880912001574998,-0.010697966824400003,0.16140356785124998
1532706832.823068,0.0482124104780975,-0.5984995507699999,-0.00050027035227125,0.0006556656179394999,-0.11634817841459999,0.1618537027975
1532706832.902267,-0.059781299981299996,-0.6053888839825,0.0005717404403717501,-0.0070725465045975,0.0822446481965,0.16272416915849996
1532706832.984094,-0.038472068439475,-0.7574807854375001,0.0025996908553050004,-0.0072384030612125,-0.050790559360725004,0.162219761888
1532706833.063268,-0.015319800231025,-0.6424744604025001,0.0043189990955775,0.0012594479230575,0.021311956660100002,0.16121162886950002
1532706833.142526,-0.016478039230022497,-0.6493866605374999,0.006414659214600001,-0.014337401818925004,0.11763200412475,0.16051471297374997
1532706833.221704,-0.043453061839624996,-0.5879939514774999,0.0037330141927774995,0.00020623089173835005,0.018885623977050008,0.16118451207924997
1532706833.302794,0.0229667770999,-0.5791898454325,0.0016499250759574998,-0.007293984591175001,-0.012867523629849997,0.16222853676474996
1532706833.382233,0.032408126674999996,-0.6411053275025,0.00851738833375,-0.002791705787545,-0.0850445129709,0.16291189487075
1532706833.459636,-0.006477464574900005,-0.658805396105,0.010228621786175,-0.00105057728658,-0.040154119918299994,0.16306648239049998
1532706833.539016,-0.0285061234462075,-0.68046389462,0.0122429729129,-0.0033429611876949995,0.0743015636585,0.16282788240475002
1532706833.622314,-0.025185399013775003,-0.626807116665,0.0031698520872850003,-0.004159819987042499,0.08722752316725,0.1653362735105
1532706833.700725,-0.0007708861716999998,-0.671555333245,0.0006994006740075,-0.010843533091650003,0.10884606274325001,0.16797750407925
1532706833.780042,-0.04205156370195,-0.66358592114,0.0079919830208,-0.0046242209326225,-0.10091700860325001,0.16862560707450003
1532706833.861071,-0.014434813454299998,-0.62546566611,0.011842451212875,-0.0095964055422,0.10402674095174999,0.16836530783250003
1532706833.9420972,-0.008776866358475004,-0.677260786565,-6.067559616749997e-05,-0.00650722075555,0.109445549772,0.16797211491025
1532706834.021545,-0.005195917801650001,-0.6861298676325,-0.0042318797512275,-0.0005373769897179998,-0.07061928032957501,0.165903040405
1532706834.1007528,-0.018358862903190002,-0.6361752732175,-9.436905112057501e-05,-0.014178112622599999,0.033504823076195,0.1642685417
1532706834.181951,0.002293103626700002,-0.6087209789675001,0.00570327542688,-0.00470390460916,-0.087657574185,0.16627252213100002
1532706834.262624,0.012936252884789997,-0.5845443519175,0.009434568295974999,-0.011021287943275001,0.05828254529575,0.16879447800625
1532706834.341696,0.00790421599705,-0.7489750042900001,0.0073133856803,-0.011344262432300002,0.079260731225625,0.16865891025774993
1532706834.4228199,0.010071576286375006,-0.66469539618,-0.0030054929992774995,0.0024372712672675,0.21718199549875,0.16688000651525
1532706834.499552,0.036689933007925,-0.57441108377,-0.006651175535199999,-0.002038256522575,-0.004568448644874996,0.1653939503815
1532706834.579335,0.026288283517075003,-0.6410208097775001,0.0019386358656275,-0.0043628716431625,-0.22818262343975,0.1647268417775
1532706834.658363,0.010397598620975002,-0.6320815316999999,0.009217698081625,0.0056810116509,0.031478652415250004,0.16596342565525002
1532706834.739906,-0.0030899684855499945,-0.6890583072500001,0.0055312295356075,-0.005684044140375,0.09938505250124999,0.16728136723425002
1532706834.8211632,-0.04298967485069999,-0.7522276455675,0.0006719104199552499,-0.0102816476007,0.1546614355895,0.16492215058224996
1532706834.902331,0.037023785664625,-0.686875003365,-0.0012759505690250002,-0.02224606678065,0.0927140695335,0.16057520220224997
1532706834.981698,0.06309684201054999,-0.59314131735,-0.00027459575707749996,-0.012166814101274999,-0.20250219302100003,0.158907464061
1532706835.0608802,0.037194503206475,-0.46317127163149996,0.004274547206965001,-0.0020440900878524997,-0.022654464108349995,0.15934995812425
1532706835.1418948,0.011704142998774997,-0.5791873008724999,0.0028223498380275,0.0008066254240375,0.0307947146619,0.1571073423865
1532706835.222057,0.0016058610959775003,-0.6710369059475001,0.0011724882956325,0.006592164744675,0.0009053217882000024,0.15130417639775
1532706835.303294,0.023030001754424996,-0.6167021450749999,-0.00032568116019699995,0.0005056016699525,0.008862175295450005,0.145563374034
1532706835.384597,0.0343114451508925,-0.580323990165,0.002812617420725,-0.004216621813677501,-0.0267756922723575,0.1443403725345
1532706835.463782,-0.026046254079810004,-0.587151048675,0.0036001445138275,-0.012109624297975002,0.048762593908925,0.14643115656849998
1532706835.542614,0.004540397108646249,-0.5940403063925,0.00471263608049,-0.011914274611175002,0.019846805741925003,0.14722843475475003
1532706835.622023,0.012352928124850001,-0.54262201752,0.0055922254704,-0.0084206530219,-0.044796712197375,0.14789826516425
1532706835.703482,0.009950926320624998,-0.5184429209075001,0.0017405695304049998,-0.0021495272506125,-0.0047711973325925,0.14779794779
1532706835.783028,0.058686796628549996,-0.58026998873,0.0018158519503025002,-0.0022714765252675,-0.051540809506825,0.147388480401
1532706835.862133,0.025625295864024997,-0.5527531723225,0.0036379743258150004,0.006638835351225,-0.0299676553219075,0.14707392141075
1532706835.9433892,-0.018157326036939002,-0.5831694204375,0.00167128919218,-0.0048507177991175005,0.097655576236,0.14685699208499997
1532706836.022793,0.008188824565175001,-0.65056758854,-0.001904128199645,-0.009483319488999999,0.005801588447049984,0.146702426859
1532706836.102438,0.0297947520143,-0.591135821735,0.0014669780081125001,-0.004421789519437501,0.0133709643989,0.146802723735
1532706836.183648,-0.015282023176650002,-0.5372280392775,0.005003435998455,-0.0038113377852275004,0.0319613841576,0.14608412227875
1532706836.263862,0.007419803210687498,-0.5308006905574999,0.00605917698215,0.00420665849364,-0.030511148478447506,0.14589974144524998
1532706836.3433778,-0.001981794998999996,-0.5478539426825,0.0032122950813675,0.0044997831909575,0.02285672791935,0.14524621785300001
1532706836.422564,-0.0033047308363374998,-0.6102149748250001,0.00223412440576,-0.0038216450766175004,-0.09853468751625001,0.14504012844324998
1532706836.501883,-0.0822273010335,-0.612535999985,0.005464563579125,-0.0029019366333,0.02056387587165,0.14809359245725
1532706836.583116,-0.026302462182300004,-0.5618585595050001,0.00655006384095,-0.0029695307988450003,-0.04053145017767498,0.1548594625175
1532706836.662484,-0.0153210265770925,-0.70769936383,0.008063428961175002,-0.009026077793075,-0.08711029644750001,0.15796989061174999
1532706836.7413712,-0.05846991879225001,-0.6522041798100001,0.005663367352249999,-0.007851361837725002,0.09953855706850001,0.1551903700885
1532706836.822446,-0.025718337395475,-0.5625431181175,0.0037968382006625,-0.007975865705175,0.13754329914525,0.15389418129775
1532706836.901394,0.0016238556070250001,-0.50288080296925,0.0037232047244475,-0.0014522703525075,0.08261995340749999,0.15361489158025
1532706836.982601,0.045783126648705,-0.5070325049915,-0.002744559507175,0.00751519453825,0.04986360947505,0.15311593030499998
1532706837.062338,-0.006875873335349999,-0.6403688855475,-0.0036253471039275,0.004217338694655,-0.14481605755174998,0.146026742159
1532706837.1415892,-0.00031792708612500553,-0.67960948737,0.0043284587336725,-0.0089592749196,-0.04164891511924998,0.13806775360475002
1532706837.222827,-0.0443717972684,-0.5686986335875001,0.0027599062645075,-0.009788988770450001,0.11151649584525,0.13625091704575
1532706837.302286,-0.043365150361,-0.4549633255337501,0.0049612965414600006,-0.011554464959375,-0.08607438966049999,0.14096397271
1532706837.383606,0.011720197356475,-0.5301472986250001,0.0041591945723275,-0.012411290449824999,0.08529979867745,0.14635769482650002
1532706837.463667,-0.0471597997338,-0.5338364338625,0.0009954560114675,0.0016611059261775,0.03777895262985001,0.14843219860124998
1532706837.543951,0.012223776242675004,-0.563116652245,-0.0015372153791225,-0.00303913149461,0.0104632500754925,0.150216534412
1532706837.624181,-0.05577666021160001,-0.5650240440575,0.008821601210625,0.014673336452799998,-0.17545398273125,0.1535438444705
1532706837.7035868,-0.046288857335349994,-0.635809030245,0.011488900474474999,-0.0010311986554024997,0.136945530648,0.15514107038875002
1532706837.783943,-0.05568303935527501,-0.7646304870974999,0.0056033654913500005,-0.0034177411606750004,0.03134156625715,0.15513025940875003
1532706837.862863,-0.031968252940525,-0.5623596875500001,0.00498818328383,-0.009674876729174999,-0.028984967503299996,0.15538789389775
1532706837.942009,-0.049588865816350004,-0.623263135395,0.0015238262652725,-0.018408432865349995,0.083116920090525,0.15676823297025003
1532706838.02311,-0.0017300645841749982,-0.5378352783075,0.0057077035712475,-0.0030719768419524996,-0.19994914292525,0.15764416820249996
1532706838.101896,-0.017470365163235,-0.5590628417850001,0.0109939191653,-0.0056891185710475,-0.006244792118745002,0.1566727138125
1532706838.180929,0.00286425978398375,-0.6274248177724999,0.013864309037650001,-0.0029165641871225,0.026235020099665,0.15570738430449999
1532706838.263936,-0.07635134777,-0.6321440088575001,0.0025812033383425,-0.006794906973200001,0.26266433475499995,0.15490473866225002
1532706838.341886,-0.0230381105916,-0.63537912967,-0.0021424367267850004,-0.01465505419765,0.05277905716875002,0.15494816068724998
1532706838.421431,-0.0314851178767,-0.591176776855,0.00100962942761325,-0.016089425848875002,-0.10973858511025,0.15698744137874998
1532706838.500667,-0.014492375871500002,-0.5371252594625,-0.0004423785318230001,-0.0074470902242000005,0.063796543552125,0.16040156613224998
1532706838.581906,-0.02433800275755,-0.6131060829225001,0.00018562750055750002,-0.013609236294600001,-0.09562024537774999,0.16024702372925
1532706838.661252,-0.028632660957675,-0.6907800155725,0.011132186438275002,-0.009027383743825,0.011979770115500003,0.15719637644
1532706838.740621,0.020743571593775004,-0.555513086635,0.008391121614675,0.00271795086288,0.19501755469350002,0.15493752035574998
1532706838.820937,0.1050182715025,-0.55029169468,-0.006496641336025,-0.006926939999575001,0.07126349960342503,0.15393148301374998
1532706838.900485,0.10545817245824998,-0.564183750035,-0.011049520446825,0.0038582870999875002,-0.06468471152482501,0.1518949529915
