time,alt,height,lat,lon,pitch,pitch_std,roll,roll_std,vel_x,vel_x_std,vel_y,vel_y_std,vel_z,vel_z_std,x,x_std,y,y_std,yaw,yaw_std,z,z_std
1532706803.559165,76.5911858058,31.8911850429,49.402139024,2.79492200338,-0.037275378712446905,0.00012413050894658103,0.013706303402883098,0.00012315863557539695,0.03184527725345,0.0027674597222399995,0.0345692392278,0.00246333284304,0.02053482458,0.00232747616246,-278.2196191101869,0.0362338460982,329.59730788412367,0.0199066977948,0.8701915131194937,0.001019970021592191,-41.645095212344934,0.02053482458
1532706803.640853,76.58993033594999,31.88992957305,49.40213905435,2.79492204546,-0.037080374645743375,0.00012413050894658103,0.013789629985854361,0.00012315863557539695,0.01871641409215,0.0027674597222399995,0.0179077703172,0.00246333284304,0.02053482458,0.00232747616246,-278.21656466461053,0.0362338460982,329.6006831319588,0.0199066977948,0.8700597185595074,0.001019970021592191,-41.64635072406709,0.02053482458
1532706803.7197962,76.58946287535,31.88946211245,49.40213905535,2.79492205148,-0.03768135939789492,0.00012413050894658103,0.013912361145352669,0.00012315863557539695,-0.0001808021816700001,0.0027674597222399995,-0.00955836056574,0.00246333284304,0.02053482458,0.00232747616246,-278.216127699463,0.0362338460982,329.60079430351027,0.0199066977948,0.8700035891739344,0.001019970021592191,-41.64681817186407,0.02053482458
1532706803.798836,76.58904619325,31.889045430349995,49.40213904475,2.79492204837,-0.038253903997144324,0.00012413050894658103,0.01418773820609058,0.00012315863557539695,-0.001441262100966,0.0027674597222399995,-0.013781374104900001,0.00246333284304,0.02053482458,0.00232747616246,-278.21635346891486,0.0362338460982,329.5996153816798,0.0199066977948,0.8701072271766017,0.001019970021592191,-41.64723480184071,0.02053482458
1532706803.88025,76.58961949865,31.88961873575,49.4021390468,2.794922059065,-0.03790415831857433,0.00012413050894658103,0.014342323804310386,0.00012315863557539695,0.012656563982449999,0.0027674597222399995,0.0125757970905,0.00246333284304,0.02053482458,0.00232747616246,-278.21557722569435,0.0362338460982,329.5998433693301,0.0199066977948,0.8701929048651107,0.001019970021592191,-41.64666147570679,0.02053482458
1532706803.9591,76.59065183854999,31.89065107565,49.4021390546,2.7949220693250005,-0.03784034742148784,0.00012413050894658103,0.014077841183962408,0.00012315863557539695,0.009665199641975,0.0027674597222399995,0.0119030129861,0.00246333284304,0.02053482458,0.00232747616246,-278.21483254284124,0.0362338460982,329.60071088623954,0.0199066977948,0.8700887389291425,0.001019970021592191,-41.64562914779545,0.02053482458
1532706804.038834,76.5916092754,31.8916085125,49.4021390569,2.794922074715,-0.038160071954091795,0.00012413050894658103,0.013811273206114884,0.00012315863557539695,0.0011788490128069999,0.0027674597222399995,-0.005850358187875001,0.00246333284304,0.02053482458,0.00232747616246,-278.21444135857735,0.0362338460982,329.6009667174471,0.0199066977948,0.870011250916278,0.001019970021592191,-41.64467170683635,0.02053482458
1532706804.1203241,76.5911525427,31.891151779799998,49.40213905030001,2.794922078375,-0.03815789810584226,0.00013739676211076826,0.014014232496621521,0.00013650233399711812,0.0070261496241099996,0.00373587640934,-0.0050827570030849995,0.00326400250196,0.0199472550303,0.00311645120382,-278.2141757285582,0.035525955259800006,329.6002326415594,0.019400479272,0.8701829676445189,0.0010207351602563748,-41.64512839050434,0.0199472550303
1532706804.199264,76.59088097929998,31.8908802164,49.4021390514,2.79492208714,-0.03790990555428346,0.00013739676211076826,0.014070974494472475,0.00013650233399711812,0.012860885761100001,0.00373587640934,0.0049434099119300004,0.00326400250196,0.0199472550303,0.00311645120382,-278.2135395357876,0.035525955259800006,329.60035493425283,0.019400479272,0.8701844804234833,0.0010207351602563748,-41.6453999326699,0.0199472550303
1532706804.281601,76.5914260712,31.8914253083,49.402139058450004,2.794922102915,-0.03806119855463475,0.00013739676211076826,0.014016378426750147,0.00013650233399711812,0.00921737102224,0.00373587640934,0.004120394006404999,0.00326400250196,0.0199472550303,0.00311645120382,-278.2123945503003,0.035525955259800006,329.6011389929003,0.019400479272,0.8700090247191464,0.0010207351602563748,-41.64485483051618,0.0199472550303
1532706804.358588,76.59170962264999,31.89170885975,49.40213905910001,2.7949221090750003,-0.03826377442965796,0.00013739676211076826,0.014053216068753392,0.00013650233399711812,0.006352682420965,0.00373587640934,-0.00280677296533,0.00326400250196,0.0199472550303,0.00311645120382,-278.21194745844036,0.035525955259800006,329.601211276905,0.019400479272,0.8700470464708097,0.0010207351602563748,-41.644571263072365,0.0199472550303
1532706804.439835,76.59155681909999,31.891556056200002,49.402139056799996,2.794922114575,-0.03812232593539061,0.00013739676211076826,0.014062616444532853,0.00013650233399711812,0.00450328751836,0.00373587640934,-0.0035992957175150003,0.00326400250196,0.0199472550303,0.00311645120382,-278.2115482678055,0.035525955259800006,329.60095544620503,0.019400479272,0.8701989374726244,0.0010207351602563748,-41.644724037246775,0.0199472550303
1532706804.5208519,76.59182872574999,31.89182796285,49.402139058550006,2.794922121825,-0.03797359355767588,0.00013739676211076826,0.01393330085678859,0.00013650233399711812,0.007482367215945,0.00373587640934,0.004123906394225,0.00326400250196,0.0199472550303,0.00311645120382,-278.2110220556352,0.035525955259800006,329.6011500654888,0.019400479272,0.8701108007652977,0.0010207351602563748,-41.644452116962796,0.0199472550303
1532706804.600174,76.59231556385,31.89231480095,49.40213906205,2.7949221323150004,-0.038180559501865385,0.00013739676211076826,0.01386290745353488,0.00013650233399711812,0.01034224745995,0.00373587640934,0.0024485698468949997,0.00326400250196,0.0199472550303,0.00311645120382,-278.2102606796744,0.035525955259800006,329.60153931370934,0.019400479272,0.8700514313827897,0.0010207351602563748,-41.643965267098295,0.0199472550303
1532706804.679388,76.59237136035,31.89237059745,49.40213906315,2.7949221404,-0.03823341374053246,0.00013739676211076826,0.01391244283480763,0.00013650233399711812,0.009065025418179998,0.00373587640934,-0.00040158412159650004,0.00326400250196,0.0199472550303,0.00311645120382,-278.2096738563601,0.035525955259800006,329.6016616271081,0.019400479272,0.8701071425455862,0.0010207351602563748,-41.64390945065624,0.0199472550303
1532706804.760712,76.59229148315,31.892290720250003,49.402139062349995,2.7949221496000005,-0.03809441338827822,0.00013739676211076826,0.014045363558501792,0.00013650233399711812,0.00565637949091,0.00373587640934,-0.002370881425985,0.00326400250196,0.0199472550303,0.00311645120382,-278.20900610982204,0.035525955259800006,329.60157261495436,0.019400479272,0.8701585174500734,0.0010207351602563748,-41.64398929414972,0.0199472550303
1532706804.8403358,76.5925380303,31.8925372674,49.40213906255,2.794922156185,-0.03803453230054091,0.00013739676211076826,0.014060472507928029,0.00013650233399711812,0.007122003411955,0.00373587640934,2.1810693832500063e-05,0.00326400250196,0.0199472550303,0.00311645120382,-278.2085281718229,0.035525955259800006,329.60159484674716,0.019400479272,0.8700908933565898,0.0010207351602563748,-41.64374272726535,0.0199472550303
1532706804.922451,76.592879801,31.8928790381,49.40213906465,2.79492216499,-0.03808949470984509,0.00013739676211076826,0.014013453805304655,0.00013650233399711812,0.0085272053611,0.00373587640934,0.0024048640977600002,0.00326400250196,0.0199472550303,0.00311645120382,-278.2078890968611,0.035525955259800006,329.60182839081085,0.019400479272,0.870097741478796,0.0010207351602563748,-41.64340094100524,0.0199472550303
1532706804.997625,76.59302275574998,31.893021992850002,49.4021390666,2.794922171655,-0.03813694238309613,0.00013739676211076826,0.013986890480118502,0.00013650233399711812,0.007507842246565,0.00373587640934,0.002222803210275,0.00326400250196,0.0199472550303,0.00311645120382,-278.2074053379456,0.035525955259800006,329.60204524794824,0.019400479272,0.8701291533160255,0.0010207351602563748,-41.64325797698382,0.0199472550303
1532706805.081076,76.59327105335001,31.893270290449998,49.4021390683,2.7949221796500003,-0.03815607023255228,0.00014903053686284755,0.01394878854500125,0.00014870268066663833,0.006242249104625,0.0048407800495600005,-0.00155202471654,0.0042065102607,0.0196982491761,0.00399812264368,-278.2068250520035,0.0351329483092,329.60223430335424,0.0194907989353,0.8700972711928477,0.0010217718815350588,-41.643009663653885,0.0196982491761
1532706805.16041,76.59343902805,31.89343826515,49.4021390672,2.794922187575,-0.038092091118450834,0.00014903053686284755,0.01399845192646114,0.00014870268066663833,0.009466651496330001,0.0048407800495600005,-0.0035462477984500003,0.0042065102607,0.0196982491761,0.00399812264368,-278.2062498590881,0.0351329483092,329.60211194247916,0.0194907989353,0.8700987645541516,0.0010217718815350588,-41.642841657485164,0.0196982491761
1532706805.239614,76.59357121725,31.893570454349998,49.4021390665,2.79492219446,-0.038072053419779886,0.00014903053686284755,0.013998365144240143,0.00014870268066663833,0.00881277639766,0.0048407800495600005,-0.0020955071311350004,0.0042065102607,0.0196982491761,0.00399812264368,-278.20575014679366,0.0351329483092,329.6020340705455,0.0194907989353,0.8701129784099875,0.0010217718815350588,-41.64270944183886,0.0196982491761
1532706805.319741,76.59380239894998,31.89380163605,49.402139067250005,2.794922202335,-0.03813747622608177,0.00014903053686284755,0.01409991793070099,0.00014870268066663833,0.00782011601437,0.0048407800495600005,0.000224418422978,0.0042065102607,0.0196982491761,0.00399812264368,-278.20517857520747,0.0351329483092,329.6021174676079,0.0194907989353,0.8701015718988002,0.0010217718815350588,-41.64247823987941,0.0196982491761
1532706805.399049,76.5939997076,31.8939989447,49.402139068050005,2.794922209215,-0.03815793740646822,0.00014903053686284755,0.013979594162570289,0.00014870268066663833,0.0066777170067999995,0.0048407800495600005,-0.0008793929887294999,0.0042065102607,0.0196982491761,0.00399812264368,-278.2046792202143,0.0351329483092,329.60220642657606,0.0194907989353,0.8701015128464575,0.0010217718815350588,-41.6422809140043,0.0196982491761
1532706805.480212,76.59424529035,31.89424452745,49.40213906780001,2.7949222164600003,-0.03811031689544303,0.00014903053686284755,0.013954374065587926,0.00014870268066663833,0.00646366657395,0.0048407800495600005,-0.002232645986525,0.0042065102607,0.0196982491761,0.00399812264368,-278.2041533810617,0.0351329483092,329.602178608743,0.0194907989353,0.8701240477322899,0.0010217718815350588,-41.64203530702194,0.0196982491761
1532706805.561241,76.59451147955,31.89451071665,49.40213906715,2.79492222446,-0.03811823996549912,0.00014903053686284755,0.013952433945758078,0.00014870268066663833,0.00894880455755,0.0048407800495600005,-0.0023522210453899997,0.0042065102607,0.0196982491761,0.00399812264368,-278.2035727462446,0.0351329483092,329.60210630077586,0.0194907989353,0.8701099095539304,0.0010217718815350588,-41.64176908909012,0.0196982491761
1532706805.6381052,76.59471630905,31.89471554615,49.40213906685,2.794922231385,-0.03812789507997179,0.00014903053686284755,0.01398716195880563,0.00014870268066663833,0.00947340182314,0.0048407800495600005,-0.001816918031765,0.0042065102607,0.0196982491761,0.00399812264368,-278.2030701316297,0.0351329483092,329.6020729204811,0.0194907989353,0.8701018372787308,0.0010217718815350588,-41.64156423590889,0.0196982491761
1532706805.7214859,76.59504867435,31.89504791145,49.40213906605,2.79492224178,-0.038156079987546554,0.00014903053686284755,0.014056474643810522,0.00014870268066663833,0.007917122317159998,0.0048407800495600005,-0.0029013475103600002,0.0042065102607,0.0196982491761,0.00399812264368,-278.20231566845047,0.0351329483092,329.6019839252232,0.0194907989353,0.8701002393189723,0.0010217718815350588,-41.64123183266076,0.0196982491761
1532706805.798973,76.59520843664998,31.89520767375,49.4021390656,2.79492224658,-0.03813725049418476,0.00014903053686284755,0.014015606294598772,0.00014870268066663833,0.00656570445141,0.0048407800495600005,-0.002325973675385,0.0042065102607,0.0196982491761,0.00399812264368,-278.2019672878911,0.0351329483092,329.6019338666316,0.0194907989353,0.8701086794685629,0.0010217718815350588,-41.64107205284435,0.0196982491761
1532706805.8802161,76.59546596925,31.89546520635,49.402139065200004,2.794922254455,-0.03810421446751604,0.00014903053686284755,0.013974012782244936,0.00014870268066663833,0.006815974266260001,0.0048407800495600005,-0.001836710913855,0.0042065102607,0.0196982491761,0.00399812264368,-278.20139572395624,0.0351329483092,329.60188936512026,0.0194907989353,0.870106839296374,0.0010217718815350588,-41.640814492319535,0.0196982491761
1532706805.961387,76.59574858795,31.895747825049998,49.402139064699995,2.7949222620650005,-0.038140359114339925,0.00014903053686284755,0.013962436482399875,0.00014870268066663833,0.0084042068962,0.0048407800495600005,-0.0024661918066,0.0042065102607,0.0196982491761,0.00399812264368,-278.2008433956636,0.0351329483092,329.6018337416235,0.0194907989353,0.8701085711490661,0.0010217718815350588,-41.64053184717636,0.0196982491761
1532706806.041044,76.59603336545,31.89603260255,49.4021390635,2.7949222702050003,-0.03814655792039542,0.0001589132962020535,0.014005703398507263,0.00015988126033119734,0.007989146515845001,0.00597920781001,-0.0031498908406800002,0.00522487191483,0.0198789630085,0.00495205400512,-278.20025260338275,0.0354003123939,329.6017002648209,0.0204263906926,0.8701077259943198,0.001022976480791523,-41.64024703771716,0.0198789630085
1532706806.119158,76.5963065405,31.8963057776,49.40213906225,2.794922275825,-0.03814179631688259,0.0001589132962020535,0.014014565606689351,0.00015988126033119734,0.007373901946189999,0.00597920781001,-0.0035454087046249997,0.00522487191483,0.0198789630085,0.00495205400512,-278.19984471569046,0.0354003123939,329.60156123552395,0.0204263906926,0.8701032669171911,0.001022976480791523,-41.639973837015305,0.0198789630085
1532706806.200468,76.5967438584,31.8967430955,49.4021390602,2.794922284065,-0.038131685772006096,0.0001589132962020535,0.014025921392587185,0.00015988126033119734,0.0069212714513500005,0.00597920781001,-0.003173469891315,0.00522487191483,0.0198789630085,0.00495205400512,-278.1992466767204,0.0354003123939,329.60133323067606,0.0204263906926,0.8701054755702731,0.001022976480791523,-41.63953648151835,0.0198789630085
1532706806.277761,76.5969935637,31.8969928008,49.40213905925,2.794922288995,-0.03813091275608109,0.0001589132962020535,0.013998126035869224,0.00015988126033119734,0.0070542935740350015,0.00597920781001,-0.0029274039078399997,0.00522487191483,0.0198789630085,0.00495205400512,-278.198888867355,0.0354003123939,329.60122756771443,0.0204263906926,0.8701131026940108,0.001022976480791523,-41.639286755257345,0.0198789630085
1532706806.360809,76.5974441361,31.897443373199998,49.40213905745,2.794922297535,-0.038159211859763405,0.0001589132962020535,0.013967461615026516,0.00015988126033119734,0.0072268736030599995,0.00597920781001,-0.0032458045158,0.00522487191483,0.0198789630085,0.00495205400512,-278.19826905318354,0.0354003123939,329.60102736776344,0.0204263906926,0.8701148998822308,0.001022976480791523,-41.6388361460228,0.0198789630085
1532706806.440174,76.59778911895,31.89778835605,49.402139055549995,2.79492230484,-0.03814805931274458,0.0001589132962020535,0.013981330991108896,0.00015988126033119734,0.00793596856582,0.00597920781001,-0.0040775857142149995,0.00522487191483,0.0198789630085,0.00495205400512,-278.1977388728237,0.0354003123939,329.6008160438316,0.0204263906926,0.870104702530786,0.001022976480791523,-41.638491128570045,0.0198789630085
1532706806.51913,76.59803050149999,31.8980297386,49.4021390538,2.79492231068,-0.038141836618367606,0.0001589132962020535,0.013991092864474667,0.00015988126033119734,0.008065603673865,0.00597920781001,-0.0044970742565800005,0.00522487191483,0.0198789630085,0.00495205400512,-278.1973150186635,0.0354003123939,329.6006214032228,0.0204263906926,0.8701023201528664,0.001022976480791523,-41.63824971707582,0.0198789630085
1532706806.598559,76.5983791598,31.8983783969,49.40213905179999,2.7949223185300003,-0.038151099664782376,0.0001589132962020535,0.014025107180373017,0.00015988126033119734,0.00792940857922,0.00597920781001,-0.003669615084855,0.00522487191483,0.0198789630085,0.00495205400512,-278.19674528225494,0.0354003123939,329.60039895599414,0.0204263906926,0.8701055467692347,0.001022976480791523,-41.63790102322996,0.0198789630085
1532706806.67976,76.59873927379999,31.898738510900003,49.40213905030001,2.79492232648,-0.03815296361332986,0.0001589132962020535,0.014014249107653053,0.00015988126033119734,0.008446190791414999,0.00597920781001,-0.003076446605805,0.00522487191483,0.0198789630085,0.00495205400512,-278.19616828536545,0.0354003123939,329.6002321190898,0.0204263906926,0.870102571900903,0.001022976480791523,-41.63754087539064,0.0198789630085
1532706806.759022,76.5991288223,31.8991280594,49.40213904870001,2.79492233454,-0.03815390547432657,0.0001589132962020535,0.014004749298825496,0.00015988126033119734,0.00853779239852,0.00597920781001,-0.00321049727926,0.00522487191483,0.0198789630085,0.00495205400512,-278.1955833064424,0.0354003123939,329.60005416076524,0.0204263906926,0.870105981005407,0.001022976480791523,-41.63715129199848,0.0198789630085
1532706806.840873,76.59956333785,31.89956257495,49.40213904645,2.7949223453150003,-0.03815488862187215,0.0001589132962020535,0.013983591956909533,0.00015988126033119734,0.00887580869912,0.00597920781001,-0.0041147224219000005,0.00522487191483,0.0198789630085,0.00495205400512,-278.19480127497934,0.0354003123939,329.599803901064,0.0204263906926,0.8701211588894919,0.001022976480791523,-41.63671672994673,0.0198789630085
1532706806.919112,76.5998532157,31.899852452800005,49.40213904485,2.794922351565,-0.03813738432009769,0.0001589132962020535,0.013979968908462264,0.00015988126033119734,0.008774959113055,0.00597920781001,-0.00400689537564,0.00522487191483,0.0198789630085,0.00495205400512,-278.19434766377367,0.0354003123939,329.59962594486433,0.0204263906926,0.8701190101640353,0.001022976480791523,-41.636426823162694,0.0198789630085
1532706807.000276,76.60035690055,31.90035613765,49.402139042950004,2.794922363715,-0.03814479657635128,0.0001589132962020535,0.014000065698143554,0.00015988126033119734,0.01059074076775,0.00597920781001,-0.002596556459785,0.00522487191483,0.0198789630085,0.00495205400512,-278.19346583412175,0.0354003123939,329.5994146123266,0.0204263906926,0.8700678210428656,0.001022976480791523,-41.63592308898913,0.0198789630085
1532706807.07925,76.600548909,31.9005481461,49.4021390418,2.7949223717400002,-0.03818650242807905,0.00016845654476428234,0.014035735560363218,0.00016932689974825826,0.01022954693365,0.007242617663,-0.00280543530566,0.0062901256606,0.0215726532042,0.00594807090238,-278.19288338437656,0.037725687027,329.59928669172234,0.0238563288003,0.8700664049490331,0.0010250541495554644,-41.635731048512284,0.0215726532042
1532706807.160727,76.6008534631,31.900852700199998,49.4021390394,2.79492238353,-0.03818210706428193,0.00016845654476428234,0.013962623923675501,0.00016932689974825826,0.008270764245575,0.007242617663,-0.0027084822450150004,0.0062901256606,0.0215726532042,0.00594807090238,-278.1920276781226,0.037725687027,329.5990197404398,0.0238563288003,0.8701258519672768,0.0010250541495554644,-41.63542644312051,0.0215726532042
1532706807.239987,76.60106069635,31.90105993345,49.402139038049995,2.794922389295,-0.03815272964190798,0.00016845654476428234,0.013926420178161814,0.00016932689974825826,0.00763973905876,0.007242617663,-0.002814018041265,0.0062901256606,0.0215726532042,0.00594807090238,-278.1916092638181,0.037725687027,329.5988695859182,0.0238563288003,0.8701153357502862,0.0010250541495554644,-41.6352191840104,0.0215726532042
1532706807.3214688,76.6013825256,31.901381762699998,49.4021390346,2.7949224014749996,-0.038140142118339423,0.00016845654476428234,0.013909394807946243,0.00016932689974825826,0.0112782800994,0.007242617663,-0.004992746491285,0.0062901256606,0.0215726532042,0.00594807090238,-278.1907252576025,0.037725687027,329.59848585439556,0.0238563288003,0.8700872199970198,0.0010250541495554644,-41.63489729666085,0.0215726532042
1532706807.39939,76.60156745924999,31.90156669635,49.402139032250005,2.79492241104,-0.038145665196787595,0.00016845654476428234,0.013998340922447335,0.00016932689974825826,0.012573723997949999,0.007242617663,-0.0041070145562450006,0.0062901256606,0.0215726532042,0.00594807090238,-278.190031039126,0.037725687027,329.5982244673092,0.0238563288003,0.8701003872207911,0.0010250541495554644,-41.634712317722865,0.0215726532042
1532706807.478897,76.60185662744999,31.90185586455,49.402139029699995,2.7949224231150005,-0.03818837236816732,0.00016845654476428234,0.014048720370960485,0.00016932689974825826,0.01059719220185,0.007242617663,-0.003540709379785,0.0062901256606,0.0215726532042,0.00594807090238,-278.18915464739246,0.037725687027,329.5979408310777,0.0238563288003,0.8701139305185104,0.0010250541495554644,-41.63442309712224,0.0215726532042
1532706807.558448,76.6021247082,31.902123945299998,49.40213902635,2.79492243192,-0.03817810186124689,0.00016845654476428234,0.01404280921582169,0.00016932689974825826,0.007085226427429999,0.007242617663,-0.0065306301192999995,0.0062901256606,0.0215726532042,0.00594807090238,-278.1885156000242,0.037725687027,329.59756823168243,0.0238563288003,0.870103678061785,0.0010250541495554644,-41.63415497031819,0.0215726532042
1532706807.638174,76.6022317465,31.9022309836,49.402139020700005,2.79492243812,-0.03809534214255038,0.00016845654476428234,0.01400120213148216,0.00016932689974825826,0.00672684393792,0.007242617663,-0.00850887019461,0.0062901256606,0.0215726532042,0.00594807090238,-278.1880656327959,0.037725687027,329.59693983266607,0.0238563288003,0.8700921150504144,0.0010250541495554644,-41.634047879824536,0.0215726532042
1532706807.719768,76.60203649844999,31.90203573555,49.402139016549995,2.7949224479300003,-0.03789282202590985,0.00016845654476428234,0.013977041706076235,0.00016932689974825826,0.012334339112499999,0.007242617663,-0.0037315107244,0.0062901256606,0.0215726532042,0.00594807090238,-278.1873536255481,0.037725687027,329.596478231095,0.0238563288003,0.870070117974701,0.0010250541495554644,-41.63424307271431,0.0215726532042
1532706807.800649,76.60150052044999,31.90149975755,49.402139017850004,2.794922471685,-0.037510085464746684,0.00016845654476428234,0.013967875889624082,0.00016932689974825826,0.02217945106795,0.007242617663,0.0060948940400849996,0.0062901256606,0.0215726532042,0.00594807090238,-278.1856294270507,0.037725687027,329.59662269955237,0.0238563288003,0.870082633382574,0.0010250541495554644,-41.63477898290168,0.0215726532042
1532706807.878145,76.6012387708,31.901238007899998,49.40213902395,2.79492249266,-0.03730835404930515,0.00016845654476428234,0.013989921771837999,0.00016932689974825826,0.028445228575049997,0.007242617663,0.01496599940515,0.0062901256606,0.0215726532042,0.00594807090238,-278.18410698926914,0.037725687027,329.5973010393409,0.0238563288003,0.8701053657698645,0.0010250541495554644,-41.63504070102219,0.0215726532042
1532706807.961391,76.6010163072,31.9010155443,49.40213904585,2.794922540965,-0.03705396628996466,0.00016845654476428234,0.013972687378181229,0.00016932689974825826,0.041242313951500006,0.007242617663,0.031092158443400006,0.0062901256606,0.0215726532042,0.00594807090238,-278.18060081813024,0.037725687027,329.59973652556357,0.0238563288003,0.870085475065703,0.0010250541495554644,-41.635263138489634,0.0215726532042
1532706808.039636,76.6010775878,31.901076824900002,49.402139065449994,2.7949225754400002,-0.03700972910833383,0.0001415633072196535,0.013932394897694546,0.00014167042126866643,0.0498950535543,0.00464831176214,0.040238550890500005,0.004120960773435,0.020071483217200002,0.003932818304750001,-278.1780984711227,0.0354864411056,329.60191627541747,0.0209048585966,0.8700663083310964,0.001025723710905812,-41.63520186130647,0.020071483217200002
1532706808.1175618,76.60070805104999,31.900707288150002,49.40213910164999,2.7949225928950003,-0.03686337228185789,0.00011467006967502466,0.01392946683350857,0.00011401394278907461,0.06358260833615,0.00205400586128,0.05571324670465,0.00195179588627,0.0185703132302,0.00191756570712,-278.17683134467643,0.0332471951842,329.60594228634375,0.0179533883929,0.8700949313503473,0.0010263932722561595,-41.635571551232744,0.0185703132302
1532706808.199549,76.60033357794998,31.90033281505,49.402139148050004,2.7949226199900004,-0.0367187713095802,0.00011467006967502466,0.01394248735213734,0.00011401394278907461,0.07632517251245,0.00205400586128,0.07240259019595,0.00195179588627,0.0185703132302,0.00191756570712,-278.1748644770148,0.0332471951842,329.6111026870001,0.0179533883929,0.8701384025784407,0.0010263932722561595,-41.635946205198806,0.0185703132302
1532706808.281108,76.59965716434999,31.899656401450002,49.4021392247,2.794922675325,-0.036455506511401545,0.00011467006967502466,0.01396102904307912,0.00011401394278907461,0.0935124996566,0.00205400586128,0.09497482482335,0.00195179588627,0.0185703132302,0.00191756570712,-278.1708477306403,0.0332471951842,329.6196273129292,0.0179533883929,0.8701169645343049,0.0010263932722561595,-41.6366228860046,0.0185703132302
1532706808.3581939,76.59923067124998,31.899229908349998,49.40213928075,2.7949227204550002,-0.03630752068762785,0.00011467006967502466,0.013978778103134543,0.00011401394278907461,0.104841672124,0.00205400586128,0.1090985544225,0.00195179588627,0.0185703132302,0.00191756570712,-278.1675718032107,0.0332471951842,329.6258608977115,0.0179533883929,0.8700897258552387,0.0010263932722561595,-41.637049558262234,0.0185703132302
1532706808.44025,76.59851926234998,31.89851849945,49.402139391000006,2.79492282066,-0.036021287960813206,0.00011467006967502466,0.013989513565470992,0.00011401394278907461,0.12498439066250003,0.00205400586128,0.133277530708,0.00195179588627,0.0185703132302,0.00191756570712,-278.16029814438946,0.0332471951842,329.6381222851785,0.0179533883929,0.8701046040244031,0.0010263932722561595,-41.637761284565784,0.0185703132302
1532706808.518702,76.59806232199999,31.8980615591,49.402139468399994,2.794922889345,-0.035856443996820295,0.00011467006967502466,0.013990568585160288,0.00011401394278907461,0.136915920435,0.00205400586128,0.149224171779,0.00195179588627,0.0185703132302,0.00191756570712,-278.15531244353065,0.0332471951842,329.64673028592216,0.0179533883929,0.870121093548728,0.0010263932722561595,-41.63821845361578,0.0185703132302
1532706808.598224,76.59738116615,31.89738040325,49.4021395858,2.7949230016350004,-0.03555780775030421,0.00011467006967502466,0.013971512133606983,0.00011401394278907461,0.15464659912349998,0.00205400586128,0.17240397997700002,0.00195179588627,0.0185703132302,0.00191756570712,-278.1471616011171,0.0332471951842,329.6597868404214,0.0179533883929,0.8700990100757261,0.0010263932722561595,-41.638899929765415,0.0185703132302
1532706808.679445,76.59669793814999,31.89669717525,49.4021397201,2.7949231346800003,-0.035264386648036786,0.00011467006967502466,0.01395629364523122,0.00011401394278907461,0.17507943656499997,0.00205400586128,0.19723602641300003,0.00195179588627,0.0185703132302,0.00191756570712,-278.1375042392799,0.0332471951842,329.67472290309365,0.0179533883929,0.8700426726757041,0.0010263932722561595,-41.63958351109179,0.0185703132302
1532706808.761111,76.59574507359999,31.895744310700003,49.4021399131,2.794923333935,-0.03486001311682914,0.00011467006967502466,0.014020843061670445,0.00011401394278907461,0.20184419297849998,0.00205400586128,0.227736164946,0.00195179588627,0.0185703132302,0.00191756570712,-278.1230409290974,0.0332471951842,329.6961872081215,0.0179533883929,0.8700263890548523,0.0010263932722561595,-41.640536856508916,0.0185703132302
1532706808.8382561,76.59518550749999,31.8951847446,49.402140042949995,2.7949234719150002,-0.03465009386863646,0.00011467006967502466,0.014050704362276529,0.00011401394278907461,0.2208420406995,0.00205400586128,0.25085649267300003,0.00195179588627,0.0185703132302,0.00191756570712,-278.113025409313,0.0332471951842,329.71062833794133,0.0179533883929,0.8700430964713171,0.0010263932722561595,-41.64109673387402,0.0185703132302
1532706808.919703,76.59383010394998,31.89382934105,49.40214024075,2.79492368648,-0.03399515356781671,0.00011467006967502466,0.014140288018884744,0.00011401394278907461,0.254066035992,0.00205400586128,0.292199801748,0.00195179588627,0.0185703132302,0.00191756570712,-278.09745083562495,0.0332471951842,329.7326264135729,0.0179533883929,0.8700468499004848,0.0010263932722561595,-41.642452597106995,0.0185703132302
1532706809.0005322,76.5918577704,31.8918570075,49.40214052985,2.794924003635,-0.03300913263206697,0.00011467006967502466,0.014132901682437343,0.00011401394278907461,0.2986204361475,0.00205400586128,0.346127578016,0.00195179588627,0.0185703132302,0.00191756570712,-278.0744296084288,0.0332471951842,329.76477828919957,0.0179533883929,0.8699914221756682,0.0010263932722561595,-41.64442559322016,0.0185703132302
1532706809.08025,76.5906830886,31.8906823257,49.4021407994,2.7949243490599995,-0.032269972879465474,0.00012874951836279068,0.014212372947811434,0.00012844601162533494,0.3404887331315,0.00291836238466,0.394114260412,0.00266310269944,0.0183997936547,0.00254138512537,-278.04935665451177,0.0326419249177,329.7947557884449,0.0176553744823,0.869974905910281,0.0010278529394063538,-41.645600735537826,0.0183997936547
1532706809.159693,76.59016013095,31.89015936805,49.40214102255,2.7949246439750004,-0.03191833652062337,0.00012874951836279068,0.014306106766465107,0.00012844601162533494,0.371672592692,0.00291836238466,0.42804059383899995,0.00266310269944,0.0183997936547,0.00254138512537,-278.0279500704156,0.0326419249177,329.81957298919053,0.0176553744823,0.8699931245724385,0.0010278529394063538,-41.64612404541147,0.0183997936547
1532706809.239542,76.58964564230001,31.8896448794,49.40214135315,2.794925081645,-0.031642786176703276,0.00012874951836279068,0.01452949597694051,0.00012844601162533494,0.41597205983700003,0.00291836238466,0.47935067043949997,0.00266310269944,0.0183997936547,0.00254138512537,-277.99618154307825,0.0326419249177,329.8563400463123,0.0176553744823,0.8700283243605754,0.0010278529394063538,-41.646639054885654,0.0183997936547
1532706809.320671,76.58877202819997,31.8887712653,49.402141816299995,2.7949256921600005,-0.03135644309228369,0.00012874951836279068,0.01485569179306048,0.00012844601162533494,0.469283138707,0.00291836238466,0.544329323192,0.00266310269944,0.0183997936547,0.00254138512537,-277.95186694519714,0.0326419249177,329.90784840459696,0.0176553744823,0.86993251526876,0.0010278529394063538,-41.64751340883253,0.0183997936547
1532706809.3998392,76.58790499804999,31.887904235150003,49.4021421216,2.79492609457,-0.031026666522341304,0.00012874951836279068,0.015027020111532154,0.00012844601162533494,0.49980740592350004,0.00291836238466,0.578401086467,0.00266310269944,0.0183997936547,0.00254138512537,-277.92265776140255,0.0326419249177,329.9418017576803,0.0176553744823,0.8698216385069115,0.0010278529394063538,-41.64838092718806,0.0183997936547
1532706809.481386,76.58654251594999,31.88654175305,49.402142670900005,2.794926820825,-0.03040279204233989,0.00012874951836279068,0.01541315319887323,0.00012844601162533494,0.5508509069015,0.00291836238466,0.635983214056,0.00266310269944,0.0183997936547,0.00254138512537,-277.8699421032171,0.0326419249177,330.00289110232023,0.0176553744823,0.8696846622502535,0.0010278529394063538,-41.64974427931591,0.0183997936547
1532706809.5609438,76.5856247199,31.885623957,49.40214314665,2.79492745077,-0.02976134392029089,0.00012874951836279068,0.015387599153113789,0.00012844601162533494,0.5886741686585,0.00291836238466,0.6801557171539999,0.00266310269944,0.0183997936547,0.00254138512537,-277.82421718098476,0.0326419249177,330.0558007362954,0.0176553744823,0.869607616093669,0.0010278529394063538,-41.650662827901996,0.0183997936547
1532706809.64084,76.5848798961,31.884879133200002,49.40214365595,2.7949281205050003,-0.029225024701909658,0.00012874951836279068,0.015161668041948012,0.00012844601162533494,0.6236489034599999,0.00291836238466,0.7274764870065,0.00266310269944,0.0183997936547,0.00254138512537,-277.77560406989767,0.0326419249177,330.1124415997275,0.0176553744823,0.8694961735929428,0.0010278529394063538,-41.651408471774204,0.0183997936547
1532706809.7217882,76.5839778669,31.883977104,49.40214419895,2.7949288324350006,-0.028742795394100146,0.00012874951836279068,0.015055378964275034,0.00012844601162533494,0.664355565873,0.00291836238466,0.773139320399,0.00266310269944,0.0183997936547,0.00254138512537,-277.72392819699263,0.0326419249177,330.17283034874634,0.0176553744823,0.869422348726854,0.0010278529394063538,-41.65231138445027,0.0183997936547
1532706809.8005788,76.5829920545,31.8829912916,49.4021447729,2.794929589465,-0.028296233526935773,0.00012874951836279068,0.015007210113943398,0.00012844601162533494,0.7054896852729999,0.00291836238466,0.815694412104,0.00266310269944,0.0183997936547,0.00254138489254,-277.66897873269215,0.0326419249177,330.2366611275954,0.0176553744823,0.8694024396923721,0.0010278529394063538,-41.65329811689071,0.0183997936547
1532706809.8801382,76.5821246714,31.8821239085,49.40214537760001,2.794930392025,-0.02789890069215338,0.00012874951836279068,0.01523018399578199,0.00012844601162533494,0.7464906450615,0.00291836238466,0.857598248308,0.00266310269944,0.0183997936547,0.00254138489254,-277.6107244771486,0.0326419249177,330.3039117015936,0.0176553744823,0.8693415779922672,0.0010278529394063538,-41.6541664540931,0.0183997936547
1532706809.961221,76.58130357924999,31.88130281635,49.40214601225,2.794931236515,-0.027390657242941718,0.00012874951836279068,0.015561374138952436,0.00012844601162533494,0.781476410031,0.00291836238466,0.8986948545610001,0.00266310269944,0.0183997936547,0.00254138489254,-277.5494267244302,0.0326419249177,330.3744931056651,0.0176553744823,0.8691865561804429,0.0010278529394063538,-41.6549885424112,0.0183997936547
1532706810.043055,76.58049801690001,31.880497254,49.402146676150004,2.794932117955,-0.026641228939061228,0.00013509839589838547,0.016082948336850846,0.00013502938680166662,0.8141232880465,0.003521803882905,0.9387475809585,0.00315839226823,0.018417528830499998,0.00295078987256,-277.48544693206236,0.032478453591450004,330.44832750581304,0.017664817161849998,0.8689730249264138,0.0010284875532698707,-41.65579515460331,0.018417528830499998
1532706810.121988,76.5796786607,31.8796778978,49.4021473674,2.79493303648,-0.02565171797015897,0.00014144727343398024,0.01688025612181726,0.0001416127619779983,0.84938770596,0.00412524538115,0.9745950311260001,0.00365368183702,0.0184352640063,0.00336019485258,-277.41877531119985,0.0323149822652,330.52520358159273,0.0176742598414,0.8688450338245854,0.0010291221671333874,-41.656615603727246,0.0184352640063
1532706810.201242,76.5786609258,31.878660162900005,49.4021480855,2.794933995815,-0.02463100830040665,0.00014144727343398024,0.01747112408160774,0.0001416127619779983,0.8871189208955,0.00412524538115,1.014834706345,0.00365368183702,0.0184352658689,0.00336019485258,-277.34914149172175,0.0323149822652,330.605065704671,0.0176742598414,0.86884624693139,0.0010291221671333874,-41.65763445900495,0.0184352658689
1532706810.284775,76.5780317569,31.878030994,49.40214883285,2.794934992165,-0.024233430863401913,0.00014144727343398024,0.017699441047284298,0.0001416127619779983,0.9175603085374999,0.00412524538115,1.055646512185,0.00365368183702,0.0184352658689,0.00336019485258,-277.2768209317127,0.0323149822652,330.6881808410849,0.0176742598414,0.8686820764378573,0.0010291221671333874,-41.6582648023352,0.0184352658689
1532706810.36075,76.57757882395,31.877578061050002,49.40214960985,2.7949360238849996,-0.024212948808441263,0.00014144727343398024,0.018224317440634238,0.0001416127619779983,0.9519321243665,0.00412524538115,1.095377675975,0.00365368183702,0.0184352658689,0.00336019485258,-277.2019330160391,0.0323149822652,330.77459347396973,0.0176742598414,0.8683725772303991,0.0010291221671333874,-41.65871897095971,0.0184352658689
1532706810.441952,76.57642595465,31.876425191750002,49.4021504133,2.79493709647,-0.023642588832406067,0.00014144727343398024,0.018787738809962658,0.0001416127619779983,0.990708391972,0.00412524538115,1.132387095155,0.00365368183702,0.0184352658689,0.00336019485258,-277.1240788909613,0.0323149822652,330.8639476396954,0.0176742598414,0.8681505108904675,0.0010291221671333874,-41.659873103230495,0.0184352658689
1532706810.523057,76.57488819209999,31.8748874292,49.4021512452,2.79493820978,-0.02285390829233797,0.00014144727343398024,0.01874153696206921,0.0001416127619779983,1.02549368295,0.00412524538115,1.174673512575,0.00365368183702,0.0184352658689,0.00336019485258,-277.0432687207451,0.0323149822652,330.9564657902838,0.0176742598414,0.8679007701247148,0.0010291221671333874,-41.661412165566034,0.0184352658689
1532706810.6046991,76.57377647745,31.87377571455,49.40215210895,2.794939357085,-0.022361718571827036,0.00014144727343398024,0.019040906193638588,0.0001416127619779983,1.0550198965650002,0.00412524538115,1.2153708772199998,0.00365368183702,0.0184352658689,0.00336019485258,-276.9599909933677,0.0323149822652,331.0525261366252,0.0176742598414,0.8674971639237602,0.0010291221671333874,-41.662525260643434,0.0184352658689
1532706810.681708,76.5734363845,31.873435621600002,49.4021529965,2.79494054226,-0.021771061096047817,0.00014144727343398024,0.019757939422423255,0.0001416127619779983,1.09139910525,0.00412524538115,1.24462871403,0.00365368183702,0.0184352658689,0.00336019485258,-276.8739645170181,0.0323149822652,331.1512333746974,0.0176742598414,0.8672803371407829,0.0010291221671333874,-41.662866754829125,0.0184352658689
1532706810.763785,76.57406320839999,31.8740624455,49.4021539079,2.794941768785,-0.021466122960141824,0.00014144727343398024,0.01960045938381169,0.0001416127619779983,1.1277663479800002,0.00412524538115,1.28206120728,0.00365368183702,0.0184352658689,0.00336019485258,-276.78493671742774,0.0323149822652,331.2525930646966,0.0176742598414,0.8671501309674242,0.0010291221671333874,-41.66224134248935,0.0184352658689
1532706810.8433108,76.5755681139,31.875567351,49.40215484835,2.7949430281700005,-0.02202459493760561,0.00014144727343398024,0.01973818991618359,0.0001416127619779983,1.1557664405199999,0.00412524538115,1.32564876587,0.00365368206985,0.0184352658689,0.00336019485258,-276.6935237764055,0.0323149822652,331.3571835663894,0.0176742598414,0.8668864773165206,0.0010291221671333874,-41.66073791643069,0.0184352658689
1532706810.924528,76.57668973505,31.87668897215,49.402155818,2.7949443202,-0.022679169541681577,0.00014144727343398024,0.019483036034706823,0.0001416127619779983,1.1871907769,0.00412524538115,1.3621578570050001,0.00365368206985,0.0184352658689,0.00336019461975,-276.5997412439358,0.0323149822652,331.46502149709335,0.0176742598414,0.8664426102452261,0.0010291221671333874,-41.65961784325893,0.0184352658689
1532706811.0007699,76.57698519384999,31.876984430949996,49.40215681385,2.794945648205,-0.022530518910302083,0.00014144727343398024,0.019037417623421045,0.0001416127619779983,1.21923894772,0.00412524538115,1.3989037817100003,0.00365368206985,0.0184352658689,0.00336019461975,-276.5033474223501,0.0323149822652,331.5757731692412,0.0176742598414,0.8661228487216777,0.0010291221671333874,-41.65932397524918,0.0184352658689
1532706811.0838141,76.57775677454998,31.87775601165,49.40215783555,2.794947012015,-0.022391948052858955,0.00015290507539581768,0.018893921836211754,0.00015344796429504103,1.25327937994,0.00545344781131,1.4349014541500003,0.004769939929250001,0.0187388211489,0.00429789721966,-276.4043547091386,0.032559491694,331.6893997228293,0.0183342453092,0.8658925252508715,0.0010298852902215377,-41.658554025115635,0.0187388211489
1532706811.162816,76.57844149644998,31.87844073355,49.40215888339999,2.794948414385,-0.022642246965307224,0.00015290507539581768,0.018259117398885,0.00015344796429504103,1.288203385075,0.00545344781131,1.47127741536,0.004769939929250001,0.0187388211489,0.00429789721966,-276.3025631172985,0.032559491694,331.8059344855559,0.0183342453092,0.8656227723418205,0.0010298852902215377,-41.657870968431226,0.0187388211489
1532706811.244653,76.5776803819,31.877679619,49.40215995850001,2.794949854885,-0.022219577146067385,0.00015290507539581768,0.017727091534605763,0.00015344796429504103,1.32105924801,0.00545344781131,1.507483109205,0.004769939929250001,0.0187388211489,0.00429789721966,-276.1980037921769,0.032559491694,331.92549972933216,0.0183342453092,0.8653303566335016,0.0010298852902215377,-41.658633789324114,0.0187388211489
1532706811.323924,76.5770891932,31.8770884303,49.402161057549996,2.794951330655,-0.021440040071703963,0.00015290507539581768,0.018240664708058813,0.00015344796429504103,1.353984688635,0.00545344781131,1.54111719633,0.004769939929250001,0.0187388211489,0.00429789721966,-276.09088440483504,0.032559491694,332.0477285271429,0.0183342453092,0.8651043820240272,0.0010298852902215377,-41.659226717292796,0.0187388211489
1532706811.405564,76.57760753989999,31.877606777,49.4021621814,2.79495284302,-0.02112878992995612,0.00015290507539581768,0.01855431651370179,0.00015344796429504103,1.38652515841,0.00545344781131,1.57652999568,0.004769939929250001,0.0187388211489,0.00429789721966,-275.9811088212755,0.032559491694,332.1727154594464,0.0183342453092,0.8647560101767526,0.0010298852902215377,-41.658710142654655,0.0187388211489
1532706811.482683,76.57837803845,31.87837727555,49.40216333075,2.7949543915049997,-0.021263837041554164,0.00015290507539581768,0.01909319827379636,0.00015344796429504103,1.419991697035,0.00545344781131,1.61142489389,0.004769939929250001,0.0187388211489,0.00429789721966,-275.86871147692574,0.032559491694,332.30053833644206,0.0183342453092,0.8643526046799357,0.0010298852902215377,-41.65794145605271,0.0187388211489
1532706811.564566,76.57980326235,31.87980249945,49.402164504149994,2.794955978355,-0.021847044892009712,0.00015290507539581768,0.01961700262544406,0.00015344796429504103,1.4529340144399998,0.00545344781131,1.6400433039250002,0.004769939929250001,0.0187388211489,0.00429789721966,-275.7535294528176,0.032559491694,332.43103590294726,0.0183342453092,0.8640890433534586,0.0010298852902215377,-41.65651806735919,0.0187388211489
1532706811.644017,76.58215338685,31.88215262395,49.402165698450005,2.794957596135,-0.022345695892620962,0.00015290507539581768,0.020362103393298213,0.00015344796429504103,1.4801951345850002,0.00545344781131,1.67327301179,0.004769939929250001,0.0187388211489,0.00429789721966,-275.6361024199143,0.032559491694,332.5638578675416,0.0183342453092,0.8638679078482318,0.0010298852902215377,-41.65416980777401,0.0187388211489
1532706811.725409,76.5835603657,31.8835596028,49.402166918800006,2.794959246855,-0.021935506327879398,0.00015290507539581768,0.02115369035887295,0.00015344796429504103,1.511514394355,0.00545344781131,1.70972222829,0.004769939929250001,0.0187388230115,0.00429789721966,-275.5162843808363,0.032559491694,332.6995768947244,0.0183342453092,0.8635321445980675,0.0010298852902215377,-41.652764745778406,0.0187388230115
1532706811.804736,76.58424873409999,31.8842479712,49.402168163750005,2.7949609328799996,-0.0213917455619946,0.00015290507539581768,0.021565157384548325,0.00015344796429504103,1.5436180134850002,0.00545344781131,1.74436813254,0.00476994039491,0.0187388230115,0.00429789721966,-275.3939036992441,0.032559491694,332.83803172286537,0.0183342453092,0.8632620915264191,0.0010298852902215377,-41.65207833327142,0.0187388230115
1532706811.884178,76.5840218379,31.884021075,49.40216943435,2.79496265236,-0.02083176936213028,0.00015290507539581768,0.02147859979143857,0.00015344796429504103,1.571765087145,0.00545344781131,1.7802985868449999,0.00476994039491,0.0187388230115,0.004297896754,-275.26909463647337,0.032559491694,332.97933912766865,0.0183342453092,0.8632470838660415,0.0010298852902215377,-41.65230723411392,0.0187388230115
1532706811.960998,76.58449075969999,31.8844899968,49.4021707305,2.7949643992200004,-0.020606411735622165,0.00015290507539581768,0.021803581075806086,0.00015344796429504103,1.5957070687400001,0.00545344781131,1.8156841858400004,0.00476994039491,0.0187388230115,0.004297896754,-275.14229819374737,0.032559491694,333.12348809437344,0.0183342453092,0.8635429141766515,0.0010298852902215377,-41.651840385758874,0.0187388230115
1532706812.0446,76.5849981913,31.884997428400002,49.40217205345,2.7949661743700003,-0.019975695813749625,0.0001577996091775942,0.021194862889992134,0.00015889657829930152,1.6240173477750002,0.00611652317457,1.85377323653,0.0053576848003999995,0.0190957756713,0.00480026006699,-275.0134482872003,0.0331150367856,333.2706176075144,0.0191648956388,0.8637857577040152,0.001029941336238841,-41.65133510080068,0.0190957756713
1532706812.123722,76.5852196724,31.8852189095,49.402173405,2.7949679812749997,-0.019245637704662394,0.00016269414295937073,0.01984669021913489,0.00016434519230356198,1.6509292688650001,0.0067795985378300005,1.894079340135,0.00594542920589,0.0194527283311,0.00530262337998,-274.8822933993293,0.033670581877200005,333.4209278295374,0.019995545968400003,0.8640126166534956,0.0010299973822561444,-41.651115840000216,0.0194527283311
1532706812.2048721,76.58658382435,31.886583061450004,49.40217478215,2.794969823105,-0.019405345597072,0.00016269414295937073,0.02014437316419554,0.00016434519230356198,1.68895729328,0.0067795985378300005,1.926895018415,0.005945429671560001,0.0194527283311,0.00530262291431,-274.7486035262849,0.033670581877200005,333.5740851706328,0.019995545968400003,0.8643399420186337,0.0010299973822561444,-41.64975395517362,0.0194527283311
1532706812.286565,76.5877201054,31.8877193425,49.40217618215,2.79497171026,-0.019741178436305934,0.00016269414295937073,0.020034028984157695,0.00016434519230356198,1.7275248160200003,0.0067795985378300005,1.958665916135,0.005945429671560001,0.0194527292624,0.00530262291431,-274.6116237803422,0.033670581877200005,333.7297836707738,0.019995545968400003,0.8646600442191076,0.0010299973822561444,-41.64861993749079,0.0194527292624
1532706812.364206,76.5885799136,31.888579150700004,49.4021776087,2.7949736288600002,-0.01952353268419338,0.00016269414295937073,0.018816978551514953,0.00016434519230356198,1.75053378229,0.0067795985378300005,2.0010525743250005,0.005945429671560001,0.0194527301937,0.00530262291431,-274.4723615663186,0.033670581877200005,333.8884348868332,0.019995545968400003,0.8647785065405506,0.0010299973822561444,-41.6477624581365,0.0194527301937
1532706812.445186,76.59014513059999,31.8901443677,49.40217906375,2.7949755732050003,-0.019255473353113096,0.00016269414295937073,0.018815618104014938,0.00016434519230356198,1.7775316486250001,0.0067795985378300005,2.03403359768,0.005945429671560001,0.0194527301937,0.00530262291431,-274.33123062883124,0.033670581877200005,334.0502557648224,0.019995545968400003,0.8650319804660895,0.0010299973822561444,-41.64619966157957,0.0194527301937
1532706812.524188,76.59209134565,31.89209058275,49.4021805383,2.7949775575,-0.01908616222343757,0.00016269414295937073,0.019985960824977295,0.00016434519230356198,1.8187097205999998,0.0067795985378300005,2.0595820914700003,0.005945429671560001,0.0194527301937,0.00530262291431,-274.18719998855346,0.033670581877200005,334.2142452724435,0.019995545968400003,0.8656938966852648,0.0010299973822561444,-41.64425586429603,0.0194527301937
1532706812.604601,76.59307301134999,31.893072248449997,49.4021820343,2.7949795813950002,-0.01860444912607587,0.00016269414295937073,0.020341360353669465,0.00016434519230356198,1.8473254511700001,0.0067795985378300005,2.0958649647099996,0.005945429671560001,0.0194527301937,0.00530262291431,-274.04029498067166,0.033670581877200005,334.3806202191829,0.019995545968400003,0.8662143640373705,0.0010299973822561444,-41.643276625124926,0.0194527301937
1532706812.686002,76.5950396233,31.8950388604,49.402183559899996,2.79498162976,-0.01906945898930526,0.00016269414295937073,0.021137976163121512,0.00016434519230356198,1.86693552735,0.0067795985378300005,2.1369158927100003,0.005945430137220001,0.0194527301937,0.00530262268148,-273.89161379743007,0.033670581877200005,334.5502871870398,0.019995545968400003,0.8662979704991501,0.0010299973822561444,-41.6413125445971,0.0194527301937
1532706812.765375,76.59701973475,31.89701897185,49.402185112750004,2.794983707005,-0.019581404028089534,0.00016269414295937073,0.022317753239975237,0.00016434519230356198,1.897256592875,0.0067795985378300005,2.168991283695,0.005945430137220001,0.0194527301937,0.00530262244865,-273.74083632758857,0.033670581877200005,334.7229847473059,0.019995545968400003,0.866447511462251,0.0010299973822561444,-41.639335041699255,0.0194527301937
1532706812.843536,76.5988994878,31.8988987249,49.4021866879,2.79498581695,-0.019815062168423297,0.00016269414295937073,0.021312356838450636,0.00016434519230356198,1.925176284345,0.0067795985378300005,2.205204911155,0.005945430137220001,0.0194527301937,0.00530262244865,-273.58768533405805,0.033670581877200005,334.89816235203364,0.0199955441058,0.8668066929119999,0.0010299973822561444,-41.63745793376975,0.0194527301937
1532706812.922851,76.60095786855,31.90095710565,49.40218829025,2.7949879489600002,-0.01983852182481375,0.00016269414295937073,0.02119662463048782,0.00016434519230356198,1.941815825555,0.0067795985378300005,2.238580442655,0.005945430137220001,0.0194527301937,0.00530262244865,-273.43293270297124,0.033670581877200005,335.0763650225228,0.0199955441058,0.8671296561059254,0.0010299973822561444,-41.63540229808012,0.0194527301937
1532706813.006502,76.60392713265,31.90392636975,49.40218991285,2.794990110405,-0.019833270705925814,0.00016269414295937073,0.021328751291287876,0.00016434519230356198,1.978317922315,0.0067795985378300005,2.2668877650450003,0.005945430137220001,0.0194527301937,0.00530262244865,-273.27604358123193,0.033670581877200005,335.256819804189,0.0199955441058,0.8673698700137729,0.0010299973822561444,-41.63243581441006,0.0194527301937
1532706813.085458,76.60637819344998,31.906377430550002,49.402191556999995,2.794992309965,-0.020238526900750745,0.0001703088753815098,0.02029035768942728,0.00017418281249269473,2.00751732097,0.00797852594405,2.296378244565,0.007151659112420002,0.0206422768533,0.0063546160236,-273.1163878962542,0.035934232175400004,335.4396711750376,0.0226551778615,0.8677097271789163,0.0010283994205829094,-41.62998755149644,0.0206422768533
1532706813.165208,76.60765256915,31.90765180625,49.4021932242,2.79499453911,-0.020318120119810774,0.0001703088753815098,0.020826309450289328,0.00017418281249269473,2.0347933679,0.00797852594405,2.3283159594400002,0.007151659112420002,0.020642278716,0.006354615557939999,-272.95458472961695,0.035934232175400004,335.6250859589529,0.0226551778615,0.8683040639902729,0.0010283994205829094,-41.62871602456623,0.020642278716
1532706813.2461882,76.60885909429999,31.908858331399998,49.40219491485,2.794996793545,-0.02056745669680487,0.0001703088753815098,0.020278690679471557,0.00017418281249269473,2.0524336276,0.00797852594405,2.3616350491149998,0.007151659112420002,0.020642278716,0.006354615557939999,-272.7909458630559,0.035934232175400004,335.8131087161008,0.0226551778615,0.8686880749678174,0.0010283994205829094,-41.62751241851453,0.020642278716
1532706813.327725,76.61008107704998,31.91008031415,49.4021966291,2.79499906797,-0.020591783009176298,0.0001703088753815098,0.020006786564152855,0.00017418281249269473,2.0732155282600004,0.00797852594405,2.39148056018,0.007151659112420002,0.020642278716,0.006354615557939999,-272.62585597995457,0.035934232175400004,336.0037561536625,0.0226551778615,0.8689714060549929,0.0010283994205829094,-41.62629344008501,0.020642278716
1532706813.406767,76.61197392175,31.91197315885,49.402198360300005,2.795001370445,-0.020297870971533894,0.0001703088753815098,0.020806962484344885,0.00017418281249269473,2.1023452352299996,0.00797852594405,2.4110786221550002,0.00715165957808,0.020642278716,0.006354615557939999,-272.4587301412271,0.035934232175400004,336.1962886775872,0.0226551778615,0.8695390032449843,0.0010283994205829094,-41.62440362329153,0.020642278716
1532706813.485992,76.61444067535,31.91443991245,49.402200107149994,2.7950037018050002,-0.020190492493532816,0.0001703088753815098,0.021117391197963117,0.00017418281249269473,2.1239806993699997,0.00797852594405,2.437317108595,0.00715165957808,0.020642278716,0.00635461509228,-272.2895077450201,0.035934232175400004,336.390561694924,0.0226551778615,0.8700728680236809,0.0010283994205829094,-41.621939908829106,0.020642278716
1532706813.569195,76.61650820119999,31.916507438300002,49.4022018761,2.79500605099,-0.02015024956814468,0.0001703088753815098,0.02076775145276293,0.00017418281249269473,2.13924254201,0.00797852594405,2.46976767414,0.00715165957808,0.020642278716,0.00635461509228,-272.1189914622205,0.035934232175400004,336.5872925534094,0.0226551759988,0.8702068267491792,0.0010283994205829094,-41.619875509280206,0.020642278716
1532706813.644334,76.61852738815,31.918526625250003,49.402203667600006,2.795008421325,-0.020659191057601892,0.0001703088753815098,0.020082901957416757,0.00017418281249269473,2.15829384661,0.00797852594405,2.4964211439149997,0.00715165957808,0.020642278716,0.00635461509228,-271.9469399733113,0.035934232175400004,336.7865313058047,0.0226551759988,0.8704210609057665,0.0010283994205829094,-41.61785952502754,0.020642278716
1532706813.725446,76.6197174857,31.9197167228,49.40220547285,2.795010814985,-0.020269578552549877,0.0001703088753815098,0.019930161902051914,0.00017418281249269473,2.184056611525,0.00797852594405,2.51292896567,0.00715166004375,0.020642278716,0.00635461509228,-271.77319543009526,0.035934232175400004,336.9872991826803,0.0226551759988,0.8708749732858933,0.0010283994205829094,-41.61667265052408,0.020642278716
1532706813.804593,76.62272785045,31.92272708755,49.40220729015,2.79501323681,-0.020183909928670186,0.0001703088753815098,0.020198751734684987,0.00017418281249269473,2.2071975901350003,0.00797852594405,2.533930706815,0.00715166004375,0.020642278716,0.00635461462662,-271.59740666209575,0.035934232175400004,337.18940724140225,0.0226551759988,0.8713245554596398,0.0010283994205829094,-41.61366550278622,0.020642278716
1532706813.885381,76.6246981052,31.9246973423,49.402209129250004,2.795015676755,-0.01991246361469781,0.0001703088753815098,0.019616215271464704,0.00017418281249269473,2.21730715806,0.00797852594405,2.568333848015,0.00715166004375,0.020642278716,0.00635461462662,-271.4203025719829,0.035934232175400004,337.3939397372426,0.0226551759988,0.8710745502119283,0.0010283994205829094,-41.611698550986965,0.020642278716
1532706813.9665,76.62639407809999,31.926393315200002,49.4022109911,2.7950181305450004,-0.019841743043489336,0.0001703088753815098,0.019859595486438758,0.00017418281249269473,2.236541453105,0.00797852594405,2.59364688249,0.00715166004375,0.0206422805786,0.00635461462662,-271.2421934720446,0.035934232175400004,337.6010023857374,0.0226551759988,0.8705026371255111,0.0010283994205829094,-41.61000598205784,0.0206422805786
1532706814.046613,76.62714870459999,31.9271479417,49.402212864999996,2.7950206146000003,-0.01931009635818602,0.00017283781373772706,0.020230375568244773,0.0001786260279195286,2.267973187505,0.00841112202033,2.607909740635,0.0077141213696449995,0.02146549522875,0.006868187570945,-271.0618876105757,0.03771837800745,337.80940506116997,0.0242551928386,0.8703316635523572,0.0010264219129416333,-41.6092547487912,0.02146549522875
1532706814.127995,76.6290211128,31.9290203499,49.402214751399995,2.795023126675,-0.019048476772722877,0.00017536675209394432,0.01986523881344727,0.0001830692433463625,2.2875877713,0.00884371809661,2.62660651172,0.00827658269554,0.0222887098789,0.00738176051527,-270.8795480176734,0.0395025238395,338.01919792538973,0.0258552096784,0.8703404269919031,0.001024444405300357,-41.607385734403536,0.0222887098789
1532706814.208469,76.63191726195001,31.931916499049997,49.402216654949996,2.79502565491,-0.01914936893588265,0.00017536675209394432,0.020308695081883214,0.0001830692433463625,2.29978383528,0.00884371809661,2.650513144165,0.00827658269554,0.0222887098789,0.00738176051527,-270.6960354763851,0.0395025238395,338.2308981843943,0.0258552096784,0.8701554108870504,0.001024444405300357,-41.60449304145871,0.0222887098789
1532706814.2860038,76.63511972405,31.935118961150003,49.40221857189999,2.7950282032450002,-0.01898811718159086,0.00017536675209394432,0.02169965216157184,0.0001830692433463625,2.3237660968850005,0.00884371809661,2.666993586245,0.00827658269554,0.0222887098789,0.00738176051527,-270.5110640074488,0.0395025238395,338.44408871507073,0.0258552096784,0.8698002153827227,0.001024444405300357,-41.60129406617523,0.0222887098789
1532706814.36745,76.63722578619999,31.9372250233,49.40222050225,2.795030775975,-0.01839587298257002,0.00017536675209394432,0.021610936771307536,0.0001830692433463625,2.3414005700400002,0.00884371809661,2.686664185445,0.00827658269554,0.0222887098789,0.007381760049609999,-270.32432181596715,0.0395025238395,338.6587694296175,0.0258552096784,0.8693303759254578,0.001024444405300357,-41.59919150872821,0.0222887098789
1532706814.4492118,76.6394298607,31.9394290978,49.4022224471,2.7950333643050005,-0.018222518734064996,0.00017536675209394432,0.022040934289962028,0.0001830692433463625,2.3545873207550003,0.00884371809661,2.70679182779,0.00827658269554,0.0222887117416,0.007381760049609999,-270.136447297799,0.0395025238395,338.8750627622492,0.0258552078158,0.8690072428071489,0.001024444405300357,-41.59699098709135,0.0222887117416
1532706814.528148,76.64224395105,31.94224318815,49.40222440605001,2.7950359697350002,-0.01848293823043633,0.00017536675209394432,0.02201979357837221,0.0001830692433463625,2.371001427825,0.00884371809661,2.7253268961500003,0.008276583161205,0.0222887117416,0.007381760049609999,-269.94733160543984,0.0395025238395,339.09292424779403,0.0258552078158,0.8687655564767127,0.001024444405300357,-41.59418049514032,0.0222887117416
1532706814.607448,76.64494630554998,31.944945542650004,49.402226379149994,2.79503858788,-0.01856655277509762,0.00017536675209394432,0.02071087786507999,0.0001830692433463625,2.379422949195,0.00884371809661,2.74716992877,0.00827658362687,0.0222887117416,0.0073817595839499985,-269.75729297665725,0.0395025238395,339.31235942315743,0.0258552078158,0.868352555628289,0.001024444405300357,-41.591481796887834,0.0222887117416
1532706814.688749,76.64743531585,31.94743455295,49.40222836605,2.7950412196150003,-0.018358713145351754,0.00017536675209394432,0.020583119145114778,0.0001830692433463625,2.3970915453300004,0.00884371809661,2.76058549138,0.00827658362687,0.0222887117416,0.0073817595839499985,-269.56626790082123,0.0395025238395,339.53332935698836,0.0258552078158,0.8678416923614176,0.001024444405300357,-41.58899649565048,0.0222887117416
1532706814.7658029,76.65040191585,31.95040115295,49.4022303559,2.795043878655,-0.018714056732139876,0.00017536675209394432,0.020680029388978942,0.0001830692433463625,2.423583829875,0.00884371809661,2.7617884571099998,0.00827658362687,0.0222887117416,0.0073817595839499985,-269.37326101662234,0.0395025238395,339.75462731808057,0.0258552078158,0.8676113244615099,0.001024444405300357,-41.586033551906326,0.0222887117416
1532706814.8460221,76.65331671474999,31.95331595185,49.402232351,2.7950465552950003,-0.018878365676969752,0.00017536675209394432,0.02003709716145616,0.0001830692433463625,2.43068102108,0.00884371809661,2.77442439884,0.00827658362687,0.0222887117416,0.00738175911829,-269.17897668919585,0.0395025238395,339.9765091152418,0.0258552078158,0.8673590996637532,0.001024444405300357,-41.583122401002925,0.0222887117416
